place_id,name,address,lat,lng,types,rating,user_ratings_total,price_level,website,phone,summary
ChIJyUr0V_q2Yw0RbrAUYdv0TqU,Bar De Tapas Salvador,"Carrer Poeta Miguel Hernandez, 69, 03201 Elx, Alicante, España",38.2643884,-0.7075724999999999,establishment;food;point_of_interest;restaurant,4.6,499,2,https://saliracomerbienenelche.com/barsalvador/,618 64 99 69,
ChIJF6sC4vK3Yw0RWnVMEY7PtO0,Master kebab pizzeria,"C. Antonio Pascual Quiles, 59, 03201 Elx, Alicante, España",38.2625765,-0.7106135,establishment;food;point_of_interest;restaurant,4.8,173,,https://masterkebabpizzeria.com/,641 33 12 00,
ChIJt0_1Ofe2Yw0Rg12XqPpG4tE,SANCHEZ ROLDAN restaurante,"Carrer Mariano Luiña, 16, 03201 Elx, Alicante, España",38.2677086,-0.7043008,establishment;food;point_of_interest;restaurant,4.4,412,,https://restaurantesanchezroldan.es/,,
ChIJrayn8CG3Yw0RpLE1WTjxhLM,Melisa Taperia,"Carrer los Montesinos, 20, 03203 Elx, Alicante, España",38.2662374,-0.6773549999999999,establishment;food;point_of_interest;restaurant,3.3,12,,https://www.buenacarta.es/qr6192,,
ChIJ_U5-cP-3Yw0R5VVM1uA4Ba4,Bar El Paseo Restaurante,"Calle Obispo Barrachina, C. Pedro Moreno Sastre, 34 esquina, 03205 Elche, Alicante, España",38.2722937,-0.7123832,bar;establishment;food;point_of_interest;restaurant,3.8,174,1,,865 55 16 29,
ChIJ_yKsB3q2Yw0RJ4pYagArZco,Gastro Bar El Cid,"Partida de Altabix P1 226, 03291 Elche, Alicante, España",38.2831219,-0.6827154,bar;establishment;food;point_of_interest;restaurant,3.5,3403,1,,673 87 33 62,
ChIJMTD8rIy2Yw0RvJnbSk7Mdq4,Newton Elche,"Plaça Glorieta, 2, 03203 Elx, Alicante, España",38.265822,-0.6960942,bar;establishment;food;point_of_interest;restaurant,3.8,584,,https://restaurantenewton.es/,966 16 84 06,
ChIJXbwtT223Yw0RaZmVRM7fkV4,Ouh! PAPA,"C/ Federico García Lorca, 9, 03204 Elx, Alicante, España",38.2610661,-0.7032328,establishment;food;meal_takeaway;point_of_interest;restaurant,4.8,146,,https://instagram.com/ouhpapa,688 69 62 02,
ChIJDXxFDvG2Yw0RYN2PUykb9o8,Bar - Restaurante Gustav Klimt,"Carrer del Marquès d'Asprella, 33, 03201 Elx, Alicante, España",38.26736770000001,-0.7026747,bar;cafe;establishment;food;point_of_interest;restaurant;store,4.2,471,1,,623 20 79 20,
ChIJyYkQH0e3Yw0RcWSgun6o2C0,Cocinamos para usted Altabix,"Carrer Josep Joaquim Landerer, 7, 03202 Elx, Alicante, España",38.2770294,-0.6774293,establishment;food;meal_takeaway;point_of_interest;restaurant,3.4,8,,,966 09 96 46,
ChIJOQexqTm3Yw0Rlf50uDap2OU,Chicken Uncles | Elche,"Carrer Troneta, 11, 03203 Elx, Alicante, España",38.26530959999999,-0.6979354,establishment;food;meal_takeaway;point_of_interest;restaurant,4.7,349,,https://www.chickenuncles.com/,966 83 65 31,
ChIJC6J1pda1Yw0RVO0S6kSuzmE,Bistro Artesanal cerrado,"Carrer Josefina Manresa, 109, 03202 Elx, Alicante, España",38.2783596,-0.6731984999999999,establishment;food;point_of_interest;restaurant,3.8,8,,,642 27 56 48,
ChIJ9-dKfO-2Yw0Rt-tJ1t43yS0,Pizzeria Il Mondo Della Pizza,"C. Pere Joan Perpinyà, 35, 03203 Elx, Alicante, España",38.2586602,-0.7056361999999999,establishment;food;point_of_interest;restaurant,4.5,39,,,965 41 07 27,
ChIJ-a6rU1O3Yw0R-0xtJDjmWWY,Aires Burger Bar | Elche,"Carrer Troneta, 13, 03203 Elx, Alicante, España",38.2653645,-0.6977046,establishment;food;meal_delivery;point_of_interest;restaurant,4.6,7196,2,https://airesburgerbar.com/elche/,865 88 69 14,"Hamburguesería informal con terraza que sirve hamburguesas, guarniciones, cócteles y cervezas."
ChIJ3TO5xlW2Yw0R8bx79NxYgAw,Mucho mas Que Pizza,"Carrer Francisco Tomás y Valiente, 110, 03206 Elx, Alicante, España",38.2740195,-0.7115830999999999,establishment;food;point_of_interest;restaurant,3.8,469,1,http://muchomasquepizza.com/,966 44 43 10,
ChIJbQ5pOfO2Yw0R-3ixCLkNRJ4,El Trastero Cervecería centro,"C/ Hospital, 11, 03203 Elx, Alicante, España",38.2654795,-0.6969455,bar;establishment;food;point_of_interest;restaurant,3.8,2156,1,,966 61 03 19,
ChIJESkYk6-3Yw0RHvbmWcuDMzM,Restaurante Mistral II,"Carrer Monòver, 62, 03206 Elx, Alicante, España",38.2811683,-0.7235104,establishment;food;point_of_interest;restaurant,4.2,319,1,,966 28 76 95,
ChIJu-df_ey2Yw0RutiqRHQbNJI,La Fina del Raval,"Carrer Forn Fondo, 7, 03203 Elx, Alicante, España",38.2607044,-0.6975597,establishment;food;point_of_interest;restaurant,4.2,246,1,,615 10 35 46,
ChIJBU99foC3Yw0RDeT2Bf7MljI,CUENCO ARROZ DE ORO,"Carrer Pascual García Rocamora, 36, 03205 Elx, Alicante, España",38.2726816,-0.7144455,establishment;food;point_of_interest;restaurant,3,2,,,623 21 33 22,
ChIJIWb1XIy2Yw0ROIXCvlaQ1hs,Pizzería Piccola Torino,"C. Velarde, 24, 03203 Elx, Alicante, España",38.2654773,-0.693473,establishment;food;meal_delivery;meal_takeaway;point_of_interest;restaurant,4.3,300,1,https://www.facebook.com/PizzeriaPiccolaTorino/,663 15 09 19,
ChIJs7ic-0i3Yw0RFztlRZ0okoQ,Luna de Alberdi,"Replaceta de la Fregassa, 2, Local Centro, 03202 Elche, Alicante, España",38.2661319,-0.6975072999999999,establishment;food;point_of_interest;restaurant,4.8,40,,https://www.lunadealberdi.es/,603 52 02 67,
ChIJ4_PAO9O1Yw0RZnmLHCATnpA,Restaurante KFC,"Carrer José Luis Navarro Campello, 6, 03202 Elx, Alicante, España",38.2734375,-0.6705915,establishment;food;meal_delivery;meal_takeaway;point_of_interest;restaurant,3.9,2044,1,https://www.kfc.es/encuentra-tu-kfc/kfc-elche-avd-universidad/,965 79 91 11,"Cadena de restaurantes conocida por sus cubos de pollo frito, menús combinados y complementos."
ChIJ28xxDea2Yw0Rk3YrVRX0Pi8,La Cantoneta De Josep,"Carrer Antonio Moya Albaladejo, 42, 03204 Elx, Alicante, España",38.2558579,-0.7067353,establishment;food;point_of_interest;restaurant,4.8,6,,,,
ChIJ1eWMpvS2Yw0RdgeO3riV4PQ,Museum Restaurante,"Plaza del Congreso Eucarístico, 17, 03202 Elx, Alicante, España",38.2675011,-0.6970845,bar;establishment;food;point_of_interest;restaurant,4.3,1144,2,https://sites.google.com/view/museumrestaurante/inicio,966 21 12 12,
ChIJt6o4UYC2Yw0RlSQ6TIl3030,Golden City,"Av. d'Alacant, 90, 03203 Elx, Alicante, España",38.2701416,-0.6793804999999999,establishment;food;point_of_interest;restaurant,4.2,986,1,http://www.restaurantegoldencity.es/,966 21 15 89,
ChIJfQBNg4C2Yw0RlSylY72hLec,Las Cucharas De Mamá,"C. Vicent Andrés Estellés, 24, 03202 Elche, Alicante, España",38.2721584,-0.6802606999999999,establishment;food;point_of_interest;restaurant,4.4,145,1,https://m.facebook.com/Lascucharasdemama24/posts/?ref=page_internal&mt_nav=0&locale2=es_ES,966 11 32 78,
ChIJJ7-TDgC3Yw0RvY36jQ06RMo,Pitta hut,"Carrer de la Diagonal, 37, 03206 Elx, Alicante, España",38.2720744,-0.7078253999999999,establishment;food;point_of_interest;restaurant,2.7,52,,,865 67 52 90,
ChIJCS4J00G3Yw0RisGxwwobejE,Cuenco De Oro,"Lugar Llano San José, 112, 03293 Llano de San José, Alicante, España",38.2505613,-0.73678,establishment;food;point_of_interest;restaurant,3.8,4,,,,
ChIJneyt3-i2Yw0RbRzWb-REoMc,Cafeteria La Nova Festa,"C/ Federico García Lorca, 125, 03204 Elx, Alicante, España",38.2546433,-0.7034482999999999,bar;cafe;establishment;food;point_of_interest;restaurant;store,4.4,364,1,,966 09 36 90,
ChIJD27J5wi3Yw0RoYsSZv1kFyg,Tabuu Restaurante,"Plaça Glorieta, 8, 03203 Elx, Alicante, España",38.2656253,-0.6968268,cafe;establishment;food;point_of_interest;restaurant;store,4.4,583,,,637 66 32 76,
ChIJ89QiteW2Yw0RHnNeO7y4NUg,TAPERIA MARTIN,"Carrer Concepción Arenal, 172, 03204 Elx, Alicante, España",38.2581124,-0.7080803999999999,bar;establishment;food;point_of_interest;restaurant,4.5,296,,,666 96 42 59,
ChIJFQf6t-i2Yw0Rq4AgwPL9_Mg,Bar Beatriz,"Carrer Conrado del Campo, 118, 03204 Elx, Alicante, España",38.2557236,-0.7046667999999999,bar;cafe;establishment;food;point_of_interest;restaurant,4.3,25,1,,639 62 92 69,
ChIJ4WrYWYy2Yw0RSI_-5nAcvOA,La Latería Gastrobar,"C/ Alfonso X el Sabio, 17, 03203 Elx, Alicante, España",38.265101,-0.6936584,bar;establishment;food;point_of_interest;restaurant,4.5,533,2,https://restaurante.covermanager.com/la-lateria/,662 22 49 24,
ChIJ65Kw8IS3Yw0R1mCZYD7cnKM,Racó de joan,"Plaça de les Barques, 6, 03203 Elx, Alicante, España",38.2641468,-0.6989276999999999,establishment;food;point_of_interest;restaurant,4.3,126,,,611 53 96 55,
ChIJx2nCuWi3Yw0RoIUKyXYJimA,Restaurante Avenida 43,"Carrer Vicente Blasco Ibáñez, 43, 03201 Elx, Alicante, España",38.2677982,-0.7040645,establishment;food;point_of_interest;restaurant,4.2,79,,https://www.instagram.com/restauranteavenia43_?igsh=dWRuc3B6amI1eGRk,865 80 74 07,
ChIJ8bcq6wS3Yw0RK2aWIfQavWE,VIPS Smart,"C.C. L'Aljub, Carrer Jacarilla, 7, 03205 Alacant, Alicante, España",38.262393,-0.720603,establishment;food;meal_takeaway;point_of_interest;restaurant,4.5,2752,2,http://www.vips.es/vipsmart,656 89 91 32,"Restaurante informal que sirve hamburguesas, ensaladas, sándwiches, batidos y postres."
ChIJqdtTMAC3Yw0RVWb3aCSvG7s,Supermercado Dialprix,"Carrer Emilio Hernández Selva, 101, 03205 Elx, Alicante, España",38.2700503,-0.7160534,bakery;establishment;food;grocery_or_supermarket;meal_takeaway;point_of_interest;restaurant;store;supermarket,3.8,94,,https://dialprix.es/centro/supermercado-dialprix-elx-carrer-emilio-hernandez-selva-101/?utm_source=G&utm_medium=Local&utm_campaign=Google-Local,966 66 43 12,
ChIJz5wQG3G3Yw0RDsTvXUtT5_Q,Valhöll® | Hamburguesería | Elche,"Carrer Baltasar Brotons Garcia, 3, 03203 Elx, Alicante, España",38.2701567,-0.6774918,establishment;food;point_of_interest;restaurant,4.8,1270,1,http://valhollburger.myrestoo.net/es/reservar,644 94 16 11,
ChIJ04gn8uS3Yw0RG6V9b2ji1-0,La terraza de la pescadería,"Carrer Porta de la Morera, 5, 03203 Elx, Alicante, España",38.26435499999999,-0.6952619999999999,establishment;food;point_of_interest;restaurant,4.3,235,,http://laterrazadelapescaderia.com/,965 42 01 72,
ChIJeRUYdUm3Yw0RfQJSofxr1zM,KEBAB KING,"Av. d'Alacant, 47, 03202 Elx, Alicante, España",38.2694633,-0.6832792,establishment;food;point_of_interest;restaurant,4.3,126,,,632 28 31 74,
ChIJzwUqxYC2Yw0R-U1Z_B7Ec68,Restaurante Lindaraja,"C. Fray Pedro Balaguer, 59, 03202 Elche, Alicante, España",38.2705505,-0.6813277,establishment;food;point_of_interest;restaurant,4.4,174,1,,650 29 42 64,
ChIJ0-FK0ym0Yw0RJO8MtFOgJ60,Pollos Iborra San Antón,"Carrer Alingasa, 2, 03203 Elx, Alicante, España",38.264556,-0.6769282,establishment;food;point_of_interest;restaurant,4.3,67,,http://labarbacoa.es/,965 42 44 32,
ChIJ4T29jqO3Yw0R9fAofY3kvAA,Cervecería La Sureña | Jarras y Tapas,"Carrer Jacarilla, 7, 03205 Elx, Alicante, España",38.2619782,-0.7209142,establishment;food;point_of_interest;restaurant,3.6,38,1,https://jarrasytapas.lasurena.es/es,965 46 04 81,
ChIJd2Rn6b-3Yw0RqxPdkDdqRzA,A Fuego Pizzería,"Carrer Vicente Blasco Ibáñez, 29, 03201 Elx, Alicante, España",38.267752,-0.7030156000000001,establishment;food;point_of_interest;restaurant,4.8,156,,http://www.pizzeriaafuego.com/,614 43 24 27,
ChIJ7bR1gSy0Yw0R9QQ2xYNJC1M,Mac Burguer,"Carrer Sabadell, 15, 03203 Elx, Alicante, España",38.2701074,-0.6724038,establishment;food;point_of_interest;restaurant,,,,,,
ChIJQxAY4rS3Yw0RhqnHpj6SHoc,Ramen Kiwami,"Carrer Baltasar Brotons Garcia, 10, 03203 Elx, Alicante, España",38.2689264,-0.6773431999999999,establishment;food;point_of_interest;restaurant,4.3,147,,,966 14 71 68,
ChIJKSdE7BS3Yw0R3-UHz-xBAsY,Homie's. Food Corner,"C. Vicente Antón Selva, 18, 03203 Elche, Alicante, España",38.2544237,-0.6966766999999999,cafe;establishment;food;point_of_interest;restaurant;store,4.9,141,,https://www.instagram.com/homies.foodcorner/,641 53 11 17,
ChIJvXwxY_-3Yw0RJVWbLP3jw68,XTRM DOGOS,"C/ Federico García Lorca, 93, 03204 Elx, Alicante, España",38.2567125,-0.7032279,establishment;food;point_of_interest;restaurant,4.8,23,,,617 19 62 37,
ChIJdWuNi4C2Yw0RkmjRpzS0I2s,Águila Bar Altabix | Restaurante en Elche | Alicante,"C. Vicent Andrés Estellés, 16, 03202 Elche, Alicante, España",38.2713051,-0.6799177,bar;establishment;food;point_of_interest;restaurant,4.4,1239,2,https://www.aguilabarrestaurante.com/,966 16 23 92,
ChIJBSAFTOS2Yw0RqkpDv9ScHGQ,El Candil Kebap,"Carrer del Capità Antoni Mena, 129, 03204 Elx, Alicante, España",38.2581381,-0.7084338,establishment;food;point_of_interest;restaurant,4.4,787,1,,966 09 25 96,
ChIJ5wWY77i3Yw0RhUoqvI8bwAY,wei xuan Restaurante美味轩,"Carrer Pedro Moreno Sastre, 116, 03205 Elx, Alicante, España",38.2753947,-0.7164248999999999,establishment;food;point_of_interest;restaurant,4.2,22,,,865 55 16 18,
ChIJWZGUUvC2Yw0Rwjlx3kaxepc,Bar - cafetería La Faeneta,"Carrer Juan Orts Roman, 6, 03201 Elx, Alicante, España",38.263817,-0.7034326000000001,bar;establishment;food;point_of_interest;restaurant,4.4,615,1,,661 88 94 93,
ChIJ1-rhHfC2Yw0REWGK_Pn5SA4,Turkish Kebab Kebab Y Pizzeria,"C. Hilarión Eslava, 52, 03204 Elx, Alicante, España",38.2618118,-0.7048934000000001,establishment;food;point_of_interest;restaurant,,,,,634 15 98 80,
ChIJv9ytcQC3Yw0RdkelY-HCxOY,Rolfo Tapas & Burger - Plaza Castilla (Elche),"Carrer Adolfo Marsillach, 6, 03202 Elx, Alicante, España",38.2763557,-0.6795376,establishment;food;point_of_interest;restaurant,4.3,91,,https://rolfoburger.com/,623 30 43 45,
ChIJo3NN1fq2Yw0Rsr6YYNBGJqY,Pizzería Kebab Bella Vista,"Pl. de Crevillent, 3, 03204 Elx, Alicante, España",38.2617348,-0.7081117,establishment;food;point_of_interest;restaurant,4.3,325,1,,632 44 08 62,
ChIJT_-mS_e2Yw0RYa4dGszpong,Restaurante Mesón El Granaino,"José Mª, Carrer Josep Maria Buck, 40, 03201 Elx, Alicante, España",38.2672737,-0.7047749,establishment;food;point_of_interest;restaurant,4.6,2804,3,http://www.mesongranaino.com/,966 66 40 80,Comida elegante y tradicional de la región de Valencia en un restaurante pintoresco con paredes de azulejos y vigas de madera.
ChIJj6ycaI23Yw0RhabR6Fw9qb0,Paquita's Bar | Bar en Elche,"Plaça d'Altabix, 3, 03202 Elx, Alicante, España",38.27130409999999,-0.6852963999999999,bar;establishment;food;point_of_interest;restaurant,4.9,363,,,,
ChIJu7JlYnC2Yw0RiU8yv6_fQJk,Beamut y Ferrándiz,"Cam. del Colegio, 1112, 03207 La Galia, Alicante, España",38.2838128,-0.6844701999999999,establishment;food;point_of_interest;restaurant,4,4,,http://www.cremaxcafes.com/,,
ChIJFWUF_eK2Yw0RgYcGrS63Yj4,Pizzeria Carlos Elx,"C. Pere Joan Perpinyà, 118, 03204 Elx, Alicante, España",38.2595879,-0.7130139999999999,establishment;food;point_of_interest;restaurant,4,1044,1,https://pizzeriascarlos.es/,865 64 73 63,
ChIJIcci2ji3Yw0Rdp-SMhvX6rw,Foster's Hollywood,"Avinguda de Crevillent, 35, 03293 Elx, Alicante, España",38.258681,-0.730838,establishment;food;point_of_interest;restaurant,4.5,595,2,https://fostershollywood.es/restaurante-americano/elche/fh-elche?&utm_medium=organic&utm_source=gmb,865 48 31 79,Hamburguesas y comida típica americana y tex-mex en cadena de diners con decoración industrial y de películas.
ChIJzYM8Y_e2Yw0RHvLjcAqJNGI,Restaurante Ecuatoriano Elche El Duende,"Carrer Luis Llorente, 21, 03201 Elx, Alicante, España",38.26893,-0.7055855999999999,cafe;establishment;food;point_of_interest;restaurant;store,4.2,178,1,http://restauranteecuatorinoelche.com/,688 79 33 13,
ChIJKS_1RAu1Yw0RUGxY7TbIqkM,JZ.FRIO INDUSTRIAL,"Av. d'Alacant, 03201 Elx, Alicante, España",38.2721135,-0.6709852,establishment;food;point_of_interest;restaurant,,,,,692 82 92 53,
ChIJP08OAve3Yw0RAw3juYEkNNw,Restaurante 77 sushi,"C. Pere Joan Perpinyà, 51, 03204 Elx, Alicante, España",38.2588467,-0.7074385999999999,establishment;food;point_of_interest;restaurant,4.5,213,,http://just-eat.com/,966 63 66 74,
ChIJS5Ku08m3Yw0RwuVGEE3lUnM,Elche altabix,"Carrer Juan Caracena Miralles, Num. 7, 03206 Elx, Alicante, España",38.2722455,-0.7023855,establishment;food;point_of_interest;restaurant,4.7,3,,,600 71 91 32,
ChIJT-HPI1-3Yw0RmP3qOdeHdN8,SAÓ Restaurant Elx,"Pl. Reyes Catolicos, 16, A, 03204 Elche, Alicante, España",38.26041480000001,-0.7013473,establishment;food;point_of_interest;restaurant,5,151,,http://www.saorestaurantelx.es/,621 19 65 65,
ChIJURzgR9u2Yw0R2wxQa-k8DFM,Cajas Y Artículos Pizzería,"Partida Algorós, 54, B, 03293 Elche, Alicante, España",38.245869,-0.7062663,establishment;food;meal_takeaway;point_of_interest;restaurant,4.8,4,,,610 53 29 29,
ChIJc89d1uS2Yw0RTyTrQ1_RbOE,Pollos Mathiu,"Carrer la Torre, 82, 03204 Elx, Alicante, España",38.2613052,-0.7082795000000001,establishment;food;point_of_interest;restaurant,4.5,46,,,658 35 25 00,
ChIJt3ZbYHm3Yw0RKsn-fxOhBoA,La Paraense Gourmet,"Carrer Antonio Machado, 31, 03204 Elx, Alicante, España",38.2624787,-0.7054497,bakery;establishment;food;point_of_interest;restaurant;store,5,13,,http://www.laparaensegourmet.com/,642 90 93 46,
ChIJX44N0fu2Yw0RXezRw_eWMfg,Confitería Lozano,"Carrer Benito Pérez Galdós, 66, 03201 Elx, Alicante, España",38.2665347,-0.7084140999999999,bakery;establishment;food;point_of_interest;restaurant;store,4.1,374,1,https://reposterialozano.com/,965 46 30 77,
ChIJIQkTLgC3Yw0RKUZn5Yv4qbk,Restaurante taperia Burgos,"Carrer Ramón Vicente Serrano, 03206 Elx, Alicante, España",38.27340299999999,-0.7024421,establishment;food;point_of_interest;restaurant,5,1,,,,
ChIJqWDKf4y2Yw0RQ-sKnSJa-o0,Restaurante Pizzeria Cambra Elche,"Carrer Barrera, 16, 03202 Elx, Alicante, España",38.2669354,-0.6941506,establishment;food;meal_takeaway;point_of_interest;restaurant,4.3,320,1,http://www.pizzeriacambraelche.com/,965 42 13 47,
ChIJze4jk0u3Yw0RpUN7coXGGA4,KEBAB AMIR,"C. Blas Valero, 6, 03201 Elx, Alicante, España",38.2654821,-0.7015868,establishment;food;point_of_interest;restaurant,4.3,129,,,966 09 28 13,
ChIJD-TP8BG3Yw0RNaYbIyR1cwM,美林食,"邮政编码:, Carrer Benifallim, 20, 03206 Elx, Alicante, España",38.2803614,-0.7200229,establishment;food;point_of_interest;restaurant,5,1,,,695 47 41 62,
ChIJn6AEzo22Yw0RqWE2Z2eccdg,Restaurante El Extremeño,"Carrer Porta de la Morera, 41, 03203 Elx, Alicante, España",38.2641838,-0.6921005,bar;establishment;food;point_of_interest;restaurant,4.3,434,2,http://elextremenoelche.com/,965 45 34 18,
ChIJw2Rbb723Yw0RfXOOFH9kbIo,Restaurante El Rincón de Casi,"Carrer Pere Ibarra, 3, 03203 Elx, Alicante, España",38.2665988,-0.6960178,establishment;food;point_of_interest;restaurant,3.6,55,,,605 43 89 59,
ChIJJe-Cy4-2Yw0RQ-w_al4PVB0,Hotel Huerto del Cura,"Carrer Porta de la Morera, 14, 03203 Elx, Alicante, España",38.2637508,-0.6922252,establishment;food;lodging;point_of_interest;restaurant;spa,4.5,6036,,https://www.hotelhuertodelcura.com/?utm_medium=organic&utm_source=google&utm_campaign=google-my-business&utm_term=google-local&utm_id=port-huerto,966 61 00 11,"Hotel refinado con piscina exterior, bañera de hidromasaje, spa y un restaurante de cocina mediterránea."
ChIJ73DTV_q2Yw0RVzOZfg0PdqY,Giovanni Arabo y Pizza,"Carrer Poeta Miguel Hernandez, 69, 03201 Elx, Alicante, España",38.2643873,-0.7077302,establishment;food;point_of_interest;restaurant,4.7,84,,,633 15 30 84,
ChIJwTWSqOW2Yw0RhhIkPX54C4o,International Servicio A Domicilio,"C. Pere Joan Perpinyà, 55, 03204 Elx, Alicante, España",38.2588612,-0.7076127000000001,establishment;food;point_of_interest;restaurant,4,1,,,,
ChIJ8dq677e3Yw0RWbXTUYqbc2E,Cafetería Farándula,"C. la Carátula, 16, 03202 Elx, Alicante, España",38.27673619999999,-0.679639,bar;cafe;establishment;food;liquor_store;point_of_interest;restaurant;store,4,382,1,https://cafeteria-farandula.eatbu.com/,696 77 85 35,
ChIJk7on6vy2Yw0R63HEOA9nlYo,Bocadilleria Pérez de Tudela,"C/ Mariano Benlliure, 73, 03205 Elx, Alicante, España",38.2631471,-0.7120158,bar;establishment;food;point_of_interest;restaurant,4.5,152,1,,965 46 86 41,
ChIJbyflhH23Yw0RFjp6H-Q7lhA,Restaurant Away d'Elx,"Carrer de la Diagonal, 4, 03206 Elx, Alicante, España",38.2708606,-0.7042035,establishment;food;point_of_interest;restaurant,4.6,97,,,865 55 23 17,
ChIJk7jEeva2Yw0R5BMdRLs94OA,Supermercado Dialprix,"Carrer de Teodor Llorente, 13, 03201 Elx, Alicante, España",38.2702146,-0.7015739999999999,bakery;establishment;food;grocery_or_supermarket;meal_takeaway;point_of_interest;restaurant;store;supermarket,4.2,83,,https://dialprix.es/supermercado/supermercado-dialprix-elx-carrer-blas-valero-103/?utm_source=G&utm_medium=Local&utm_campaign=Google-Local,965 43 54 53,
ChIJZVnIIuK3Yw0Rv1-cwDxN8hQ,Cervecería LA TOSTA',"Av. Ausiàs March, 65, 03206 Elx, Alicante, España",38.2742045,-0.708237,establishment;food;point_of_interest;restaurant,4.4,35,1,,,
ChIJLWu5Eoi2Yw0R1jcE-S4WxXo,Restaurante El Granero,"Carrer Francisco Vicente Rodriguez, 15, 03202 Elx, Alicante, España",38.2712436,-0.6875142,establishment;food;point_of_interest;restaurant,4.4,914,2,http://tabernaelgranero.com/,966 61 06 42,
ChIJK793x_K3Yw0RoNEirc_1wVk,Restaurante La Dama Comida Ecuatoriana Y Colombiana,"Carrer Francisco Vicente Rodriguez, 34, 03202 Elx, Alicante, España",38.2718791,-0.6875665999999999,establishment;food;point_of_interest;restaurant,4.1,207,,http://www.ladamagastrobarvc.com/,643 90 54 17,
ChIJMQ7ZDqa3Yw0R2EWpY2C_BVo,Cervecería Amaranta,"Plaça de la Fruita, 6, 03202 Elx, Alicante, España",38.2661192,-0.6981645999999999,bar;establishment;food;point_of_interest;restaurant,,,,,,
ChIJJ5QYQIy2Yw0RIe2oA_d1Wqc,Botticelli Restaurante,"Carrer Escultor Capuz, 10, 03203 Elx, Alicante, España",38.2657459,-0.6927964,establishment;food;point_of_interest;restaurant,4.7,50,,,966 20 00 67,
ChIJ2W1nuPi3Yw0Rbm594NJcM-w,La Tramontana bar & kebab,"Carrer Antonio Brotons Pastor, 148, 03205 Elx, Alicante, España",38.2676446,-0.7160553,establishment;food;point_of_interest;restaurant,4.5,55,,,865 66 43 09,
ChIJBSVRk_u2Yw0R46wLA20vyVk,Wonder food’s kebab pizzeria حلال,"Carrer Reina Victoria, 124, 03201 Elx, Alicante, España",38.2656553,-0.7096568,establishment;food;point_of_interest;restaurant,4.5,87,,,966 21 53 66,
ChIJy_Kte8O3Yw0RZm93WBO2xHI,Iberico kebab,"C. Cabezo Lucero, 8, 03290 Elche, Alicante, España",38.2441748,-0.6852958,establishment;food;point_of_interest;restaurant,5,1,,,,
ChIJIQwamYe2Yw0RmaYQSsCmrgU,Cafetería Tapería Fama,"Carrer Doctor Gregorio Marañón, 25, Plaça d'Altabix, 10, 03202 Elche, Alicante, España",38.2713227,-0.684829,bar;cafe;establishment;food;point_of_interest;restaurant;store,4.1,457,1,https://cafeteriafama.com/,673 59 78 78,
ChIJAUN4APu2Yw0RwBuLQlWVWRs,Restaurant La Sabata,"Carrer Concepción Arenal, 157, 03204 Elx, Alicante, España",38.2582115,-0.7078162,bar;establishment;food;point_of_interest;restaurant,4.1,2176,1,http://www.lasabata.es/,645 75 84 06,"Jamón y picoteo de tapas y montaditos en un amplio restaurante con vigas vista y mesas de madera, con terraza."
ChIJ8zsiUpm3Yw0RvaDKMpvqthE,THE WITCHERS,"Carrer de la Vila Joiosa, 6, 03205 Elx, Alicante, España",38.2749137,-0.7165288,bar;establishment;food;point_of_interest;restaurant,4.9,76,,,865 52 75 46,
ChIJJZSPXPe2Yw0RAcKNaZELI_o,Nou Chef,"Carrer Vicente Blasco Ibáñez, 76, 03201 Elx, Alicante, España",38.2680554,-0.705301,establishment;food;point_of_interest;restaurant,,,,,,
ChIJP_TgKwC3Yw0RDCHNxoGUD2s,Restaurante Pollería Willytos sabor peruano,"C. Pascual Sempere Mogica, 22, 03206 Elche, Alicante, España",38.2718079,-0.7030892999999999,establishment;food;point_of_interest;restaurant,3.6,13,,https://www.tiktok.com/@willytos.polleria?_r=1&_t=ZN-93iwv9fFRMU,622 79 01 43,
ChIJkWmrZbS1Yw0RuQe8KRgchDg,Ombü Gastrobar & Club,"C. Villena, 5, local 5, 03202 Elche, Alicante, España",38.27053069999999,-0.6734076999999999,bar;establishment;food;point_of_interest;restaurant,4.1,515,,https://ombuelche.com/,605 37 90 32,
ChIJn0lLFY22Yw0RMW6Af5qE7Vw,Restaurante Yaho,"Carrer Eugenio d'Ors, 6, 03203 Elx, Alicante, España",38.2630932,-0.6949002999999999,establishment;food;point_of_interest;restaurant,4.1,1572,1,http://yahocentro.com/,965 42 82 68,"Restaurante de gran tamaño con terraza, comida del continente asiático y un ambiente informal."
ChIJB2hxTlS2Yw0R6K5fZrIoXvI,Cerveceria Angel Taperia,"Carrer Joaquin Garcia Mora, 39, 03206 Elx, Alicante, España",38.2752485,-0.7121936,establishment;food;point_of_interest;restaurant,4.7,3,,,,
ChIJfVlTsCO3Yw0RsfLu6VT8UFM,Restaurante Xixili Elche,"Carrer Porta de la Morera, 2, 03203 Elx, Alicante, España",38.263772,-0.6954897,bar;establishment;food;point_of_interest;restaurant,4,179,,,722 81 41 12,
ChIJARcsIoe3Yw0RkAd7uP_vFBU,Royal Doner Kebab,"Carrer Reina Victoria, 28, 03201 Elx, Alicante, España",38.265358,-0.702934,establishment;food;point_of_interest;restaurant,2.9,72,,,632 75 47 20,
ChIJYdzzjyK3Yw0RKJZiw00bLko,Gloria Bendita Gastrobar,"Carrer Mare de Déu del Carme, 11, 03201 Elx, Alicante, España",38.264339,-0.698853,establishment;food;point_of_interest;restaurant,4.7,347,2,https://gloriabenditagastrobar.es/,641 01 83 68,
ChIJQ13Tl3e3Yw0RA7TBr_HX97Q,COMEDOR ESCUELA DE VERANO UMH,"Avinguda de la Universitat d'Elx, 03201 Elche, Alicante, España",38.2778927,-0.684792,establishment;food;point_of_interest;restaurant,4,1,,,656 65 23 21,
ChIJ7wwrm4y2Yw0RQ0T_k5qBzas,Supermercado Dialprix,"Avinguda en Joan Carles I, 9, 03202 Elx, Alicante, España",38.2666245,-0.6944764999999999,bakery;establishment;food;grocery_or_supermarket;meal_takeaway;point_of_interest;restaurant;store;supermarket,3.9,46,,https://dialprix.es/centro/supermercado-dialprix-elx-avinguda-en-joan-carles-i-9/?utm_source=G&utm_medium=Local&utm_campaign=Google-Local,966 61 08 38,
ChIJ2wrDgSy0Yw0RzRtbcxZH8r0,ZAZA DÖNER ESPAÑA S.L,"Carrer Sabadell, 15, 03203 Elx, Alicante, España",38.2701342,-0.6723756,establishment;food;point_of_interest;restaurant,3.4,5,,,965 42 14 99,
ChIJOVRX7vu2Yw0Rh2yOqssHhVw,Comedor Vegetariano,"Carrer Dr. Ferrán, 59, 03201 Elx, Alicante, España",38.2637183,-0.7086498999999999,establishment;food;point_of_interest;restaurant,4.7,282,1,,649 21 83 66,
ChIJ-VyVPlW2Yw0R2kMANPogINg,Mt83 Restaurante,"Carrer Francisco Ruiz Bru, 15, 03205 Elx, Alicante, España",38.273742,-0.714302,bar;establishment;food;point_of_interest;restaurant,4.6,2116,1,https://mt83restaurante.shop/,965 44 95 34,"Bar restaurante espacioso, sencillo y de larga trayectoria con platos caseros y del día."
ChIJ8U57ieS2Yw0RoLRHZ-JoHbY,Mesón Alberto Cenas,"Carrer Capità Gaspar Ortiz, 139, 03204 Elx, Alicante, España",38.2592842,-0.709658,establishment;food;point_of_interest;restaurant,4.6,131,1,,966 63 48 87,
ChIJnXmqufa2Yw0RFr3XTCdznvg,Paolo's Pizza,"Carrer Vicente Blasco Ibáñez, 22, 03201 Elx, Alicante, España",38.26787729999999,-0.7020776,establishment;food;point_of_interest;restaurant,4.1,289,1,http://paolospizzaelche.com/,642 90 82 04,
ChIJx8Dp7_m2Yw0R44HRYbSWVjA,restaurante en elche Asador Ilicitano,"Carrer Mestre Giner, 9, 03201 Elche, Alicante, España",38.2677934,-0.7064836,establishment;food;point_of_interest;restaurant,4.5,600,2,http://www.asadorilicitano.com/,965 43 58 64,"Carne, pescado y marisco a la brasa y migas en local con paredes de piedra y ladrillo con bodegones al óleo."
ChIJz7poxIG2Yw0RCFTLoZuhnGM,"Telepizza Elche, Frasquita - Comida a Domicilio","C/ Frasquita Vazquez, 5, 03203 Elx, Alicante, España",38.2687059,-0.6780265,establishment;food;meal_delivery;meal_takeaway;point_of_interest;restaurant,3.7,457,1,https://www.telepizza.es/,965 42 16 81,Pizzas con receta clásica o elaboración al gusto en cadena de pizzerias con servicio a domicilio.
ChIJ_0AnteW2Yw0RZxMJseWNQFw,La Dama Sector V Comidas para llevar,"Carrer Concepción Arenal, 174, 03204 Elx, Alicante, España",38.2578936,-0.7081116,establishment;food;meal_takeaway;point_of_interest;restaurant,4.2,270,1,,966 63 52 10,
ChIJ7zk1VfG2Yw0RSvMTp3yHbuM,Águila Bar Centro | Restaurante en Elche | Alicante,"Carrer Dr. Caro, 31, 03201 Elx, Alicante, España",38.2670608,-0.7011408,bar;establishment;food;point_of_interest;restaurant,4.2,1076,2,https://www.aguilabarrestaurante.com/,966 16 35 48,
ChIJW8J7t_q2Yw0RIUwRhIYabk0,Supermercado Dialprix,"Carrer Antonio Machado, 32, 03201 Elx, Alicante, España",38.2624118,-0.7065919,bakery;establishment;food;grocery_or_supermarket;meal_takeaway;point_of_interest;restaurant;store;supermarket,4,118,,https://dialprix.es/centro/supermercado-dialprix-elx-antonio-machado-32/?utm_source=G&utm_medium=Local&utm_campaign=Google-Local,965 43 78 63,
ChIJ6eBK9Aa3Yw0RzroQVPBM4j4,Restaurante Uno Mas Uno,"Av. de la Llibertat, N 86, 03205 Elx, Alicante, España",38.2690182,-0.7082752,establishment;food;point_of_interest;restaurant,3.7,120,1,,966 00 19 82,
ChIJT1mYcYS3Yw0R0oA6T-KKT8Q,Umbrella Sociedad de Hamburguesas,"Carrer Vicente Blasco Ibáñez, 88, 03201 Elx, Alicante, España",38.268118,-0.7065294999999999,establishment;food;point_of_interest;restaurant,2.8,69,,https://umbrellash.es/,604 90 07 36,
ChIJUfNY5g63Yw0RdXhB7fEh7Ys,Restaurante El Garrofer de la peña,"Camí Vell de Crevillent, 03296 La Penya de les Àguiles, Alicante, España",38.2648993,-0.727911,bar;establishment;food;point_of_interest;restaurant,4.1,1318,2,https://elgarroferdelapeny.wixsite.com/carta,965 43 15 32,
ChIJvRNdTYu2Yw0ReOjOvi8-2Yw,St. Patrick's,"Passeig Eres de Santa Llúcia, 12, 03202 Elx, Alicante, España",38.2677643,-0.6962165,bar;establishment;food;point_of_interest;restaurant,3.9,735,2,https://www.facebook.com/St.Patricks.Elche/,966 61 04 03,
ChIJgaK6-n62Yw0RhHDwtfMi0cU,Abrasador El Racó de Mama Lola,"Carrer Alfredo Mira Gran, 1, 03202 Elx, Alicante, España",38.2758064,-0.6800545,bar;establishment;food;point_of_interest;restaurant,4.5,1556,2,https://abrasador.com/restaurantes/abrasador-el-raco-de-mama-lola/,652 33 24 10,Carnes ibéricas a la brasa de ganadería propia en asador con barra para desayunos y tapeo y tienda gourmet.
ChIJ47OehlS3Yw0RrHZRazX2PLk,Munir kebab,"Carrer Jacarilla, 7, 03293 Elx, Alicante, España",38.2619782,-0.7209142,establishment;food;point_of_interest;restaurant,3.3,36,,,,
ChIJ65hTUf62Yw0RITgvw3c8lZ8,Bar Calasparra,"Carrer José García Ferrández, 28, 03205 Elx, Alicante, España",38.2693199,-0.7127894,bar;establishment;food;point_of_interest;restaurant,4.5,525,1,https://saliracomerbienenelche.com/calasparra/,965 43 59 45,
ChIJzYz9Xa63Yw0RnYqZcuSmqp8,Calzados Rodriguez,"Carrer Benifallim, 03206 Carrus, Alicante, España",38.2804738,-0.7211738,establishment;food;point_of_interest;restaurant,3.5,6,4,https://www.calzadosrodriguez.net/,965 46 41 53,
ChIJs9nRO9W3Yw0R7cyNUfSs954,Restaurante KFC,"Carrer Corredora, 40, 03202 Elx, Alicante, España",38.2661946,-0.6957422,establishment;food;meal_delivery;meal_takeaway;point_of_interest;restaurant,4.4,859,1,https://www.kfc.es/,965 75 10 01,"Cadena de restaurantes conocida por sus cubos de pollo frito, menús combinados y complementos."
ChIJvzJAcO-2Yw0RyliEA-eZJF4,Costrería EL PEROLET,"Pedro Juan Perpiñan, 23, 03204 Elx, Alicante, España",38.2585664,-0.7051712,establishment;food;meal_takeaway;point_of_interest;restaurant,4.5,192,1,https://www.facebook.com/costreriaelperolet/,640 22 21 44,
ChIJzZPepAu3Yw0RDT294Mkt_E0,Restaurante Tiro de Pichon Kisuki,"Partida Algorós, pol 2 n, 30, 03293 Elche, Alicante, España",38.246741,-0.7034904,establishment;food;point_of_interest;restaurant,4.1,91,,http://grupokisuki.es/,865 58 48 42,
ChIJ0wAkoOS2Yw0RC_NU60rBuNA,Restaurante Williams,"Carrer Fernanda Santamaría, 03204 Elx, Alicante, España",38.260414,-0.7104174999999999,bar;cafe;establishment;food;point_of_interest;restaurant;store,4.2,366,1,https://www.facebook.com/WilliamsGastroBar/,966 09 43 97,
ChIJZ-xIseS2Yw0RruKEUe4143s,Bar La Taberna de Atila,"Carrer Capità Gaspar Ortiz, 108, 03204 Elx, Alicante, España",38.2612026,-0.7097176,bar;establishment;food;point_of_interest;restaurant,4.2,404,1,,966 65 59 93,
ChIJC4EaeOW2Yw0RsIaCE-eS334,King Pak Halal Döner Kebab,"Carrer Espronceda, 99, 03204 Elx, Alicante, España",38.2591486,-0.7063041,establishment;food;point_of_interest;restaurant,4.3,142,1,,632 54 79 72,
ChIJ84TfYIy2Yw0RpmRRQgk_XZU,Bar Tabarca,"Carrer Escultor Capuz, 2, 03203 Elx, Alicante, España",38.2659002,-0.6937266,bar;establishment;food;point_of_interest;restaurant,4.3,1396,1,,965 45 62 38,
ChIJF27lQfO2Yw0RB_0F-LT_RKA,El Galgo,"Carrer Sant Jaume, 6, 03202 Elx, Alicante, España",38.26600260000001,-0.6974368,establishment;food;point_of_interest;restaurant,4.6,507,2,http://www.elgalgorestaurante.com/,965 04 22 00,
ChIJvwc08Hm3Yw0R61i6r1G_Y40,Kebab & Pizza,"Near, C. Vicent Andrés Estellés, 6, 03202 Elche, Alicante, España",38.2704426,-0.6795669999999999,establishment;food;point_of_interest;restaurant,3.5,197,,https://www.kebabypizza.es/,623 99 33 92,
ChIJiU-ROfO2Yw0RJY55U5jovQ0,El Trastero Cervecería Altabix,"C/ Frasquita Vazquez, 03203 Elx, Alicante, España",38.2685856,-0.6783234,bar;establishment;food;point_of_interest;restaurant,3.7,848,1,https://m.facebook.com/eltrasteroaltabix,966 61 80 21,
ChIJzzPJBGS3Yw0RtkYoHRu-b3Q,Marcodany,"C. Pilar de la Horadada, 1, 03203 Elche, Alicante, España",38.2689805,-0.6787073000000001,establishment;food;point_of_interest;restaurant,5,29,,https://www.instagram.com/m_d_cocina_italiana?igsh=MWo4cmExMGdmZm93cA==,600 09 86 18,
ChIJ3z8GPRu3Yw0Rm-yqjgHNJdo,Me Too Sushi Buffet,"Avinguda de Crevillent, 13, 03293 Elx, Alicante, España",38.2603393,-0.7220833999999999,establishment;food;point_of_interest;restaurant,4.1,2595,2,http://www.metoosushi.net/,966 78 66 28,"Amplio restaurante con decoración asiática y ambiente familiar, que ofrece platos nipones y bufé de sushi."
ChIJETDC3VS2Yw0REsyU8qAc_1Y,"Telepizza Elche, Novelda - Comida a Domicilio","Avinguda de Novelda, 3, 03205 Elx, Alicante, España",38.2695099,-0.70789,establishment;food;meal_delivery;meal_takeaway;point_of_interest;restaurant,3.3,229,1,https://www.telepizza.es/,965 46 67 67,Pizzas con receta clásica o elaboración al gusto en cadena de pizzerias con servicio a domicilio.
ChIJq6qqavq2Yw0RXc0d_oUe7Yw,La xicoteta Masía,"Mestre Serrano, 8, 03201 Elx, Alicante, España",38.2655868,-0.7070548999999999,establishment;food;point_of_interest;restaurant,4,1,,,650 98 78 58,
ChIJlxyuUP-2Yw0RAlPeL_Ad_Mw,ASADOR DE POLLOS EDELWEISS,"Asador de pollos y comidas para llevar, Carrer Antonio Brotons Pastor, 5, 03205 Elx, Alicante, España",38.2719023,-0.7110839999999999,establishment;food;point_of_interest;restaurant,4.4,153,1,https://www.instagram.com/asadoredelweiss/,965 43 71 82,
ChIJ_____4-3Yw0Rv3cQ-9JcXVQ,Mesón El Gorrión,"Calle Alcalde Juan Hernández Rizo, 52, 03203 Elche, Alicante, España",38.26799520000001,-0.6699446,establishment;food;point_of_interest;restaurant,4,496,1,,965 42 26 24,
ChIJtQrpzfq2Yw0R-jITkrojy1c,S Landuche,"Carrer Dr. Sapena, 65, 03204 Elx, Alicante, España",38.26043689999999,-0.706239,establishment;food;point_of_interest;restaurant,2.7,3,,,966 63 27 20,
ChIJmdjRZti3Yw0Rt-cQDSyOszQ,Greco Gastro-bar,"Carrer Orihuela, 3, local 1, 03203 Elx, Alicante, España",38.2700182,-0.6782311999999999,bar;cafe;establishment;food;point_of_interest;restaurant;store,4.6,833,1,,613 13 93 98,
ChIJu80lC_m2Yw0RsDSIOOlGWPo,Domino's Pizza,"Av. de la Llibertat, 86, 03205 Elx, Alicante, España",38.268421,-0.7082260000000001,establishment;food;meal_delivery;meal_takeaway;point_of_interest;restaurant,4,1660,1,https://www.dominospizza.es/,965 44 91 00,"Cadena con servicio de reparto a domicilio, con amplia variedad de pizzas y otros platos y entrantes."
ChIJJx_gYeW2Yw0RxxQ3Wq7FsXQ,Els Sopars d'Elx - Desayunos y Almuerzos,"Maximiliano, Carrer de Maximilia Thous, n°.50, B, 03204 Elche, Alicante, España",38.2601699,-0.7057799,establishment;food;point_of_interest;restaurant,4.5,73,,,,
ChIJV8OrJ_C2Yw0RHh_o0nMfV88,Socarrat Asador Comidas De Llevar,"Carrer Dr. Sapena, 14, 03204 Elx, Alicante, España",38.261989,-0.7042419999999999,establishment;food;meal_takeaway;point_of_interest;restaurant,4.6,256,1,https://socarratcomidasparallevar.es/,965 08 97 29,
ChIJ7bHVF422Yw0RVd6UcosIaqU,Altamar Restaurante,"Carrer Eugenio d'Ors, 4, 03203 Elx, Alicante, España",38.263631,-0.6950856,establishment;food;point_of_interest;restaurant,4.4,728,,https://www.facebook.com/AltaMarElche/,966 44 10 35,"Local con barra tallada, interior diáfano con cristaleras y terraza para tapas clásicas, pescados y mariscos."
ChIJs0HCTn-2Yw0RkEpnBwcRIPU,POLLOS ASADOS _La Casona_(ALTABIX)_Plaza Castilla,"Carrer d'Il·licità Absent, n° 10, bajo, 03202 Elx, Alicante, España",38.2770409,-0.6780876,establishment;food;point_of_interest;restaurant,4.7,154,1,https://www.instagram.com/lacasonaelche,965 42 92 36,
ChIJGVVG7_u3Yw0RJ-fRAVKOCyY,Circo Altabix - Plaza Castilla,"Carrer Jaime Gómez Orts, 14, 03202 Elx, Alicante, España",38.2771939,-0.6788029999999999,establishment;food;point_of_interest;restaurant,4.4,533,,https://circorestaurante.com/restaurantes/elche-plaza-castilla/,865 53 90 88,
ChIJi6jMOv62Yw0RfPgAs6V5MRk,Pizzeria Amici Toscar,"Carrer Juan Díez Martínez, 57, 03205 Elx, Alicante, España",38.2687031,-0.7146157,establishment;food;point_of_interest;restaurant,4.7,583,1,https://amicielx.my.canva.site/,965 43 41 45,
ChIJ10XDmOq3Yw0Ro9cHnPh3L0o,Cattleya Delicias Colombianas,"Pg. Nit de l'Albà, 12, 03206 Elx, Alicante, España",38.2699452,-0.7068141,establishment;food;point_of_interest;restaurant,3.8,678,1,https://www.instagram.com/cattleyadeliciascolombianas?igsh=ZW5mcWxmbW4wNWdh,966 04 64 47,
ChIJPQfs8ve2Yw0RW1Enjj0cPaw,Taperia Emilio,"Carrer Hermanos Gonzálvez Selva, 43, 03206 Elx, Alicante, España",38.2710218,-0.7051953,bar;establishment;food;point_of_interest;restaurant,3.9,66,,,,
ChIJE25yNuS2Yw0RWCKN4jvswEM,Cervecería Gallagher,"Carrer del Capità Antoni Mena, 144, 03204 Elx, Alicante, España",38.2576563,-0.7087258,bar;establishment;food;point_of_interest;restaurant,4.3,841,1,,966 61 87 81,
ChIJt7tiFFiwYw0RR5KwsDOKMyE,Restaurante El Misteri d'Anna,"Partida Peña Águilas, 347, 03296 Elx, Alicante, España",38.2663816,-0.738637,establishment;food;point_of_interest;restaurant,4.5,1071,2,http://www.elmisteridanna.com/,966 67 56 44,Cocina de autor en local de decoración clásica en salones con obras de arte o en terraza-cenador de madera.
ChIJ19qq5ki3Yw0RHEebKnBfvqs,El Perro Verde,"Plaça de Sant Joan, 9, 03203 Elche, Alicante, España",38.2615698,-0.6992113,establishment;food;point_of_interest;restaurant,4.3,205,,,665 33 63 27,
ChIJKz43EPu2Yw0Re9gdbbeKUww,Relío de Crespo (Crespo's),"Carrer del Capità Baltasar Tristany, 76, 03201 Elx, Alicante, España",38.2636262,-0.7088890999999999,bar;establishment;food;night_club;point_of_interest;restaurant,4.6,540,1,,603 02 25 88,
ChIJt24Ss-m2Yw0RWgbibhCIgi0,Restaurante Chino Acuario,"Carrer Asdrubal, 4, 03204 Elx, Alicante, España",38.2529141,-0.7033138,establishment;food;meal_delivery;meal_takeaway;point_of_interest;restaurant,4.1,874,1,https://www.acuarioelche.com/,966 64 07 86,
ChIJ7U5Z9lm3Yw0RFYDMeTTXzKg,Mariu Pizza (ELCHE) PRÓXIMAMENTE,"Carrer Guadalest, 1, 03202 Elx, Alicante, España",38.2706524,-0.6807611,establishment;food;point_of_interest;restaurant,,,,,,
ChIJnWhz39K3Yw0RK5nJSzGNnlU,Cafetería -Tapería Adrián,"Carrer José Díez Mora, 28, 03205 Elx, Alicante, España",38.2698288,-0.7119419,bar;cafe;establishment;food;point_of_interest;restaurant,5,6,,,698 80 94 80,
ChIJOUhOtfm2Yw0RjEKNOq7FQd4,Bar restaurante Jijonenca,"Pg. Nit de l'Albà, 6, 03206 Elx, Alicante, España",38.2696144,-0.7070078,bar;cafe;establishment;food;point_of_interest;restaurant,4.5,148,1,,,
ChIJxfJejCy0Yw0RctRfsqLdU5Y,Burger King,"Poligono Industrial d'Altabix, C. Alcoy, 12, 03203 Elche, Alicante, España",38.2701534,-0.6720932,establishment;food;meal_takeaway;point_of_interest;restaurant,3.6,3521,1,https://www.burgerking.es/home?utm_source=gmb&utm_medium=local_seo_home&utm_campaign=tracking_seo,618 87 18 19,"Conocida cadena de comida rápida que sirve hamburguesas a la parrilla, patatas fritas y batidos."
ChIJjXnieYy2Yw0RfH2QaPgRFL4,Cervecería Bierwinkel,"Avinguda en Joan Carles I, 24, 03202 Elx, Alicante, España",38.266569,-0.6934849,bar;establishment;food;point_of_interest;restaurant,4.2,1253,1,,966 61 26 52,
ChIJzwuXE6m3Yw0RuPVB4hvHVtU,Hotel YIT Ciudad de Elche,"Carrer Petrer, 37, 03206 Elx, Alicante, España",38.275878,-0.720972,establishment;food;lodging;parking;point_of_interest;restaurant,3.7,1101,,https://www.hotelciudaddeelche.com/,965 43 57 60,"Hotel con habitaciones funcionales con Wi‑Fi gratis, restaurante informal y bar."
ChIJCQHdbwC3Yw0RXgaLuHCxZCw,New York kebab 2 Elche,"Carrer León Sánchez Sáez, 64, 03205 Elx, Alicante, España",38.2680892,-0.7153305000000001,establishment;food;point_of_interest;restaurant,4.3,42,,,966 57 62 36,
ChIJIaQOjUm3Yw0RCqUyFhdT7zI,Domino's Pizza,"Avinguda en Joan Carles I, 19, 03202 Elx, Alicante, España",38.26675,-0.69395,establishment;food;meal_delivery;point_of_interest;restaurant,4.1,244,1,https://www.dominospizza.es/,965 00 15 56,"Cadena con servicio de reparto a domicilio, con amplia variedad de pizzas y otros platos y entrantes."
ChIJfWBqR4y2Yw0RnT_SzWxQWao,Restaurante La Cueva,"C. Velarde, 38, 03203 Elx, Alicante, España",38.2653555,-0.6927901,establishment;food;point_of_interest;restaurant,4.3,104,2,,637 86 87 55,
ChIJAy0NMuW3Yw0R7xaO-jMW6oU,Fratelli Pazzi | Restaurante italiano en Elche,"Travessia de les Barques, 5, 03203 Elx, Alicante, España",38.2642338,-0.698766,establishment;food;point_of_interest;restaurant,4.7,754,,,,
ChIJEyOoB_S2Yw0R_2aPw_cP3tQ,"La Barra del Mercat (Restaurante, Bar y Cafetería).","sin número, frente, Av. de la Comunitat Valenciana, 19, 03201 Elx, Alicante, España",38.2670331,-0.7002681,bar;establishment;food;point_of_interest;restaurant,4.2,1640,2,http://www.labarradelmercat.com/,678 91 55 50,
ChIJTcNdyuqxYw0RPPE_x2-6YMM,Ca Tona Eventos | Bodas y Celebraciones,"Partida de Algoros, número P-1- 261, 03293 Elx, Alicante, España",38.2440645,-0.721756,establishment;food;point_of_interest;restaurant,4.5,10,,https://catonaeventos.com/,966 63 09 49,
ChIJSdAB-ve2Yw0RL7En6z5DcAs,Palacio del Pollo Asado,"Carrer Manuel Vicente Pastor, 29, 03206 Elx, Alicante, España",38.271642,-0.7054803,establishment;food;point_of_interest;restaurant,4.4,182,1,,965 43 40 09,
ChIJB6WUP-u2Yw0RB5bUJ3oncXc,Bar Fini,"Av. de Dolores, 27, 03203 Elx, Alicante, España",38.2553613,-0.6972877,bar;establishment;food;point_of_interest;restaurant,4.4,297,1,,965 14 11 83,
ChIJKcAPk7O3Yw0RTdubgoR2rrc,Bocolo Restaurante,"Carrer Poeta Miguel Hernandez, 83, 03201 Elx, Alicante, España",38.2644299,-0.7086366,bar;establishment;food;point_of_interest;restaurant,4.4,428,1,,865 97 01 76,
ChIJfRKDBPy3Yw0RDVLOncvgdGA,YAHYA EURO DONER KEBAB,"C. Antonio Pascual Quiles, 59, 03201 Elx, Alicante, España",38.2625765,-0.7106135,establishment;food;point_of_interest;restaurant,3.6,8,,,641 33 12 00,
ChIJ46lBv063Yw0RcBFO1DYhpL4,Shogun Burger,"Carrer Doctor Jiménez Díaz, 4, 03202 Elx, Alicante, España",38.2669989,-0.6935827,establishment;food;point_of_interest;restaurant,4.8,270,2,,602 24 20 88,
ChIJWan9o963Yw0Rd9aABd7IZBA,La Papaya Rapid Food,"Carrer Oscar Esplá, 46, 03201 Elx, Alicante, España",38.2688217,-0.7034112,establishment;food;point_of_interest;restaurant,4.2,752,1,,624 77 15 13,
ChIJB_zDleG3Yw0R8eO7JXyUa7g,Carpe diem,"Carrer Capità Alfons Vives, 61, 03201 Elx, Alicante, España",38.2634607,-0.7098742,establishment;food;point_of_interest;restaurant,5,1,,,,
ChIJp8sTRfK3Yw0RRSqbIFQcjgs,PLATAFORMA DE HOSTELERIA ILICITANA,"Carrer Major del Raval, 9, 03203 Elx, Alicante, España",38.2601021,-0.6985901999999999,establishment;food;point_of_interest;restaurant,,,,https://plataformadehosteleriailicitana.com/,638 82 20 49,
ChIJ5RTyQvO2Yw0RZYtc8W_cAO0,Monumental Restaurant Elche,"Replaceta de la Fregassa, 4, 03202 Elx, Alicante, España",38.2662926,-0.6973699000000001,establishment;food;meal_takeaway;point_of_interest;restaurant,4.2,2797,2,http://monumentalrestaurant.com/,966 60 26 69,Platos de cocina mediterránea con toques de autor en un elegante espacio de distintos ambientes y aire inglés.
ChIJRbbjioa2Yw0RWb_GBbu3pgk,Bar Valverde Elche,"Calle Guillermo Santacilla, 13, 03203 Elx, Alicante, España",38.2684717,-0.684205,bar;establishment;food;meal_takeaway;point_of_interest;restaurant,4.5,2019,1,http://www.barvalverde.es/,965 45 22 84,"Bar de tapas de ambiente relajado, con terraza a pie de calle, que ofrece diversos platos, cócteles y cerveza de grifo."
ChIJ35B56m23Yw0Rz5CE9e-rssc,Taperia el Sol,"Carrer Fernanda Santamaría, 31, 03204 Elx, Alicante, España",38.2600328,-0.7056707,establishment;food;point_of_interest;restaurant,3.7,3,,,,
ChIJs5qRFEO3Yw0RKrjocKrdRPk,CATUAÍ - Cafe & Bar,"Pje. Dr. Ferrán, 25, 03201 Elche, Alicante, España",38.2635338,-0.7037583,bar;cafe;establishment;food;point_of_interest;restaurant;store,4.9,82,,https://www.instagram.com/catuai.es,661 40 44 01,
ChIJ4Wkxtoy2Yw0Rg72UlGE4NvU,Bar Casa Villalobos,"Carrer Empedrat, 13, 03203 Elx, Alicante, España",38.2657252,-0.6957721,bar;establishment;food;point_of_interest;restaurant,4.2,311,1,https://www.facebook.com/barcasavillalobos/?nr,965 45 00 16,
ChIJTQGCMkS3Yw0Rn4twccr2XEw,UFF.,"Carrer Vicente Blasco Ibáñez, 88, 03201 Elx, Alicante, España",38.268118,-0.7065294999999999,establishment;food;point_of_interest;restaurant,2,4,,https://estoesmuyuff.es/,604 90 07 36,
ChIJ2TVxTPe2Yw0RMfMpEyKvsJ0,Cafetería La Molenda,"Carrer Lope de Vega, 42, 03201 Elx, Alicante, España",38.26721740000001,-0.704912,bar;cafe;establishment;food;point_of_interest;restaurant;store,3.9,191,,,,
ChIJkwYcbVpKYg0Rj7Ua5kMaMwQ,Restaurante WokSushi Elx,"C. Barchell, 03203 Elche, Alicante, España",38.2714351,-0.6713431999999999,establishment;food;point_of_interest;restaurant,4.1,2538,1,,965 45 80 70,Bufé libre de comida asiática con platos a la plancha al gusto en amplia sala con toques vanguardistas.
ChIJvd8g4Fm2Yw0RkI7iz5YdL-U,Cafetería Polaris,"Cam. de los Magros, 84, 03206 Elche, Alicante, España",38.2762632,-0.7056905,cafe;establishment;food;point_of_interest;restaurant;store,4.2,175,,,,
ChIJezTS6FS2Yw0Rx2KD4-T9EV0,Doner Kebab Aksa,"Carrer Jose Javaloyes Orts, 63, 03206 Elx, Alicante, España",38.2756565,-0.7138105,establishment;food;point_of_interest;restaurant,3.4,193,,http://kebabelaksaelche.com/,865 60 82 95,
ChIJc4jQXA63Yw0RlUqNOxFWTHQ,Luna Brunch,"Av. d'Alacant, 62, 03203 Elx, Alicante, España",38.2690687,-0.6839661,establishment;food;point_of_interest;restaurant;store,4.1,29,,,666 48 76 89,
ChIJsb-petK1Yw0RcV1OV4LLGEs,41 Gastro,"Carrer José Antonio Cañete Juárez, 41, 03202 Elx, Alicante, España",38.2758107,-0.6687924,bar;establishment;food;point_of_interest;restaurant,4.1,511,2,https://41gastro.com/,617 52 96 21,
ChIJoUbYTeO2Yw0RnVVjaF1CEBg,Taperia La Torre,"Carrer la Torre, 103, 03204 Elx, Alicante, España",38.2613804,-0.7112132,establishment;food;point_of_interest;restaurant,4,51,,,,
ChIJcYDpHcW3Yw0RfIS5mh4lB2M,RINCON COSTEÑO.ES,"Carrer Concepción Arenal, 7, 03201 Elx, Alicante, España",38.2683512,-0.7069698,establishment;food;point_of_interest;restaurant,5,6,,,610 14 31 04,
ChIJfwP1ULG3Yw0R_eHpkqt4XUw,Al Taufik,"Carrer Ginés García Esquitino, 03206 Elx, Alicante, España",38.2747198,-0.7074112,establishment;food;point_of_interest;restaurant,3.7,3,,,622 33 05 84,
ChIJx6cUB6m3Yw0RdzSMt2sV9bI,Pizza Italia,"Carrer Gabriel Miró, 11, 03201 Elx, Alicante, España",38.2646228,-0.7025709,establishment;food;point_of_interest;restaurant,4.6,28,,https://me-qr.com/mobile/pdf/1264441,681 90 05 28,
ChIJQ_iQGyK3Yw0ROCZCc6A9KME,VALU Arte Comestible,"Carrer Lepanto, 15, 03201 Elx, Alicante, España",38.2655647,-0.7021084,bakery;establishment;food;point_of_interest;restaurant;store,5,8,,,644 81 50 32,
ChIJUYBR7KS3Yw0RP1As05N7suw,ROOTS PLAZA,"Avinguda dels Llauradors, 7-4, 03204 Elx, Alicante, España",38.2533843,-0.7051974000000001,bar;cafe;establishment;food;point_of_interest;restaurant;store,4.5,213,1,,865 68 10 26,
ChIJlYwMbPO2Yw0RVaXuKXz3sHo,"La Taperia Braseria - Plaça de les Flors, 17","Plaça de les Flors, 17, 03202 Elx, Alicante, España",38.2659989,-0.6977914,establishment;food;point_of_interest;restaurant,3.8,424,1,,633 63 77 06,
ChIJDZrTTfG3Yw0R0EqAQZq6kIA,innovaplay oe,"Avinguda de Crevillent, 15, 03205 Elx, Alicante, España",38.2599813,-0.720673,establishment;food;point_of_interest;restaurant,,,,,,
ChIJXRaxaO62Yw0RC7D36DYRUz4,Restaurante Desayunos y Almuerzos,"03204 Elche, Alicante, España",38.2598415,-0.7019464999999999,establishment;food;point_of_interest;restaurant,4.4,7,,,,
ChIJAUPQZpO2Yw0R-abS8lyHfNc,CAFETERIA - LA TORRETA,"Carrer Eduardo Ferrández Garcia, s/n, 03203 Elx, Alicante, España",38.2569083,-0.6944041999999999,bar;cafe;establishment;food;point_of_interest;restaurant;store,4.6,932,1,,,
ChIJVTOsZoy2Yw0R-GzsyHHDma4,Cervecería Hops Hell Craft Beer,"Carrer Daoíz, 3, 03203 Elx, Alicante, España",38.2661078,-0.6935671,bar;establishment;food;point_of_interest;restaurant,4.6,181,1,https://www.instagram.com/hopshellcraftbeer?igsh=MWZjaW5jMHgzMnUyOA==,,
ChIJBcfH5Mm3Yw0RhXTIdtagkPU,Popeyes Famous Louisiana Chicken,"Carrer Jacarilla, 7, 03293 Elx, Alicante, España",38.2619782,-0.7209142,establishment;food;point_of_interest;restaurant,4.3,1305,1,https://www.popeyes.es/es?utm_source=gmb&utm_medium=local_seo_plkesp_home&utm_campaign=tracking_seo&utm_term&utm_content,689 99 06 24,"Louisiana-inspired fast-food chain known for its crispy fried chicken, chicken sandwiches & fries."
ChIJSyLOO223Yw0Ri6mf7QTxAZI,El Gordito Café,"Carrer Ruperto Chapí, 16, 03201 Elx, Alicante, España",38.2661855,-0.7030529999999999,establishment;food;point_of_interest;restaurant,4.9,115,,https://elgorditoelx.eatbu.com/,613 71 27 03,
ChIJvZtJTau3Yw0RqKbD9smKf_0,La Cantina Gastro Bar,"Av. del Mestre Melchor Botella, 23, 03206 Elx, Alicante, España",38.2767796,-0.7152784000000001,bar;cafe;establishment;food;night_club;point_of_interest;restaurant;store,3.7,421,,,966 67 06 65,
ChIJybrIrIq3Yw0Rp4pj5V7g9cA,FENG JI NOODLES 冯记面馆 Ramen&Cafe,"Avinguda de les corts valencianes 1, Pl. Jardín de Aspe, 5, 03205 Elche, Alicante, España",38.2762508,-0.715974,establishment;food;point_of_interest;restaurant,5,19,,,966 67 59 76,
ChIJuWL1ZJe3Yw0Rd0bKjPG5FV0,El Rey De La Quisquilla,"03205 Elche, Alicante, España",38.269308,-0.7107068999999999,establishment;food;point_of_interest;restaurant,4.6,56,,,,
ChIJa9WbggS3Yw0RxDUaAtRqJ7A,Foster's Hollywood,"C.C. L'Aljub, C. Jacarilla, s/n, 03205 Elche, Alicante, España",38.26263,-0.720983,establishment;food;point_of_interest;restaurant,3.9,2726,2,https://fostershollywood.es/restaurante-americano/elche/fh-laljub?&utm_medium=organic&utm_source=gmb,865 48 32 96,Hamburguesas y comida típica americana y tex-mex en cadena de diners con decoración industrial y de películas.
ChIJq0Bll663Yw0RskmsCeF9Aio,King Pak 786 Asia S L,"Carrer Benasau, 23, 03206 Elx, Alicante, España",38.279815,-0.7215438,establishment;food;point_of_interest;restaurant,3.5,13,,https://kingpakonline.wixsite.com/distribuidorkingpak/contacto,667 23 54 53,
ChIJd5R1IS-3Yw0RuOBQ7SMH_tI,Zerosei Pizza Romana,"Travessia de les Barques, 5, 03203 Elx, Alicante, España",38.2642477,-0.6987607,establishment;food;point_of_interest;restaurant,4.3,59,,https://zeroseipizza.es/,649 55 97 19,
ChIJGeFY1Ju3Yw0Rx6_XCxzyfD0,Daya Vieja Take Away,"Carrer Dr. Caro, 9, Bajo, 03201 Elx, Alicante, España",38.2658396,-0.7012432,establishment;food;meal_takeaway;point_of_interest;restaurant,4.5,4,,,865 58 57 90,
ChIJWwhpMWK3Yw0RxgMgTjRKLAc,Tremenda Hamburguesería Elche,"Plaça de la Fruita, 7, 03202 Elx, Alicante, España",38.2658006,-0.69806,establishment;food;point_of_interest;restaurant,4.8,755,,https://tremendaburgers.es/,684 76 67 09,
ChIJuSlh9qy3Yw0RpAgim9z-5LM,Birras bar,"Av. de la Llibertat, 86, 03205 Elx, Alicante, España",38.2688977,-0.708178,bar;establishment;food;point_of_interest;restaurant,4.2,323,1,https://instagram.com/birrasbarelche?utm_medium=copy_link,650 93 25 90,
ChIJo7BsbOG2Yw0RqU1e7Seq8z8,Buffet El Mixto,"Carrer Presidente Adolfo Suárez, 13, 03293 Elx, Alicante, España",38.2554718,-0.7122191,establishment;food;point_of_interest;restaurant,3.7,1931,2,,965 57 30 14,
ChIJz5efOhe3Yw0RGiOhwc8KQCA,Kebab turco,"03205 Elche, Alicante, España",38.2699349,-0.7125639,establishment;food;point_of_interest;restaurant,1,3,,,,
ChIJM5znVay3Yw0RqreAPUS5PNo,Bikers Restaurante - Gastro Bar,"Carrer Almansa, 48, 03206 Elx, Alicante, España",38.2798563,-0.7177049,bar;cafe;establishment;food;point_of_interest;restaurant,4.2,1510,1,https://bikersrestaurante.es/,965 46 73 88,
ChIJQ5LK2n-2Yw0R09l1312xJMM,El Pastisset OBRADOR Horno de Pastelería y Panadería,"Carrer Conrado del Campo, 131, 03204 Elx, Alicante, España",38.2557658,-0.7044739,bakery;establishment;food;point_of_interest;restaurant;store,4,386,1,,606 04 70 26,
ChIJZYePa-i2Yw0R2PnUG5PEbJY,"Bar restaurante El Parque ""Sector V""","Avinguda dels Llauradors, 5, 03204 Elx, Alicante, España",38.2533149,-0.7047338999999999,bar;establishment;food;point_of_interest;restaurant,4.2,855,1,,966 63 18 53,
ChIJbfS15u62Yw0R0_hjLl9CdJw,Restaurante Sansano'S,"Carrer Fra Jaume Torre, 7, 03204 Elx, Alicante, España",38.2579987,-0.7034474,establishment;food;point_of_interest;restaurant,4.4,3278,2,https://restaurantesansanoselche.es/,966 63 26 74,Cocina española tradicional con ingredientes locales en un restaurante regentado por una familia con terraza.
ChIJVTIQo1a2Yw0Rp_Mt5EPdynY,King Pak Doner Kebab,"Avinguda de Novelda, 85, 03205 Elx, Alicante, España",38.2765185,-0.7098213999999999,establishment;food;meal_takeaway;point_of_interest;restaurant,3.9,186,1,https://www.pakdonerkebabelche.es/,966 24 30 92,
ChIJVcBJQH-2Yw0REQV04bClGvM,taperia restaurante plaza castilla,"Plaça Castella, 7, 03202 Elx, Alicante, España",38.2766132,-0.6781739999999999,bar;establishment;food;point_of_interest;restaurant,3.9,290,1,https://taperiaplazacastilla.com/,966 16 27 18,
ChIJGdmuUf22Yw0RrR5GCaiFlgY,Cuipon,"Av. de la Llibertat, 139, 03201 Elx, Alicante, España",38.2621639,-0.7145553,beauty_salon;establishment;food;point_of_interest;restaurant;store,,,,http://www.cuipon.com/,965 08 07 00,
ChIJISdcWIO3Yw0R8JRuSKP8x48,Totem Elche,"Carrer Portell de Granyana, 4, 03202 Elx, Alicante, España",38.2682049,-0.6963877,establishment;food;point_of_interest;restaurant,4.8,227,,https://grupototem.es/,638 02 63 50,
ChIJ6QBFOjK3Yw0Rm68486OXXTU,Tapeando,"Avinguda de Novelda, 15, 03205 Elx, Alicante, España",38.2702645,-0.708797,establishment;food;point_of_interest;restaurant,4,55,1,,,
ChIJHy_GUxC3Yw0RaSGSiBRbRzg,Lamum Catering Centro,"C/ Infante D. Manuel, 03203 Elx, Alicante, España",38.265239,-0.6951104,establishment;food;point_of_interest;restaurant,4.7,75,,http://www.lamum.es/,621 27 11 04,
ChIJ-c4oiPi3Yw0R4MwxVh5gP4A,FOOD CORNER ELCHE,"Carrer José Grau Niñoles, 20, 03205 Elx, Alicante, España",38.2691114,-0.7154062,establishment;food;point_of_interest;restaurant,,,,https://www.instagram.com/foodcornerspain?igsh=MTcwemFlY3ZscmE4NQ==,,
ChIJgVHtnoe2Yw0RsVUcP_YR2T4,Pak Doner Kebab,"C. Dr. Gregorio Marañón, 25, bajo, 03202 Elx, Alicante, España",38.2713699,-0.6846093999999999,establishment;food;point_of_interest;restaurant,3.2,174,1,http://pakdonerkebab.makro.rest/,966 09 01 95,
ChIJyerjwfa2Yw0R7IKm-OTsTpQ,Supermercados Dia,"Carrer del Marquès d'Asprella, 30, 03201 Elx, Alicante, España",38.2684179,-0.7023484999999999,bakery;establishment;food;grocery_or_supermarket;point_of_interest;restaurant;store;supermarket,4.1,189,,https://www.dia.es/,912 17 04 53,"Alimentación, bebidas, droguería y perfumería en supermercados con productos propios y de primeras marcas."
ChIJi5PCno63Yw0Rx6nisCr-rR8,Himawari Ramen,"Zona, Palacio De Congresos, Carrer Eugenio d'Ors, 4, 03203 Elche, Alicante, España",38.2635125,-0.6950274,establishment;food;point_of_interest;restaurant,4.6,1362,2,https://www.himawarielche.com/,642 76 66 54,
ChIJ_dG2WgC3Yw0Rm2d4ZF0z-08,La papaya rapid food,"Carrer Martín de Torres, 12, 03202 Elche, Alicante, España",38.2676478,-0.6926701,establishment;food;point_of_interest;restaurant,3.8,57,,,,
ChIJfZWVd4a3Yw0RUHp7yTs7YWI,Popeyes Famous Louisiana Chicken,"Avinguda de Crevillent, 31, 03293 Elx, Alicante, España",38.2581802,-0.7282082999999999,establishment;food;point_of_interest;restaurant,4.7,681,,https://www.popeyes.es/es?utm_source=gmb&utm_medium=local_seo_plkesp_home&utm_campaign=tracking_seo&utm_term&utm_content,,
ChIJFRYCWYu2Yw0RtF4R5h1paiE,Supermercado Dialprix,"Carrer Capità Lagier, 15, 03202 Elx, Alicante, España",38.2673745,-0.6954989,bakery;establishment;food;grocery_or_supermarket;meal_takeaway;point_of_interest;restaurant;store;supermarket,4.3,66,,https://dialprix.es/centro/supermercado-dialprix-elx-carrer-capita-lagier-15/?utm_source=G&utm_medium=Local&utm_campaign=Google-Local,966 61 50 69,
ChIJTVATXKW3Yw0ROIVzUWIFUM8,Bar El Racó de Dane,"Carrer Luis Gonzaga Llorente, 5, 03202 Elx, Alicante, España",38.2687334,-0.6942979,bar;establishment;food;point_of_interest;restaurant,4.3,235,,,966 21 13 29,
ChIJeejrG0e3Yw0RGKzsgf2xCPc,padthaiwok CC L' Aljub - Elche,"CENTRO COMERCIAL L'ALJUB, C. Jacarilla, 7, LOCAL LA21, 03205 Elche, Alicante, España",38.2619782,-0.7209142,establishment;food;meal_delivery;meal_takeaway;point_of_interest;restaurant,4,184,1,https://padthaiwok.com/,965 77 44 80,
ChIJkzshZYu2Yw0RShN9wbaNO2s,Restaurante + Que Tapas,"Passatge Alejandro Ramos Folqués, 3, 03202 Elche, Alicante, España",38.2675795,-0.6946053000000001,establishment;food;point_of_interest;restaurant,4.3,794,2,,966 28 67 08,
ChIJG8cnveK2Yw0RkTCR36TuiO4,Restaurante Cuenco de Oro,"Carrer Fernanda Santamaría, 128, 03204 Elx, Alicante, España",38.2606448,-0.7147568999999999,establishment;food;point_of_interest;restaurant,4.2,1778,1,https://www.facebook.com/cuencode.oro.3,966 63 58 98,
ChIJPXkgXOO2Yw0R3T_wXEoJYkE,Supermercado Dialprix,"C. Antonio Pascual Quiles, 87, 03204 Elx, Alicante, España",38.2605979,-0.7108479,bakery;establishment;food;grocery_or_supermarket;meal_takeaway;point_of_interest;restaurant;store;supermarket,4.5,54,,https://dialprix.es/centro/supermercado-dialprix-elche-carrer-antonio-pascual-quiles-87/?utm_source=G&utm_medium=Local&utm_campaign=Google-Local,966 64 05 33,
ChIJx5YtokK3Yw0R5BGPtgq8rYo,La Guafle,"Carrer Monserrate Guilabert Valero, 83, 03205 Elx, Alicante, España",38.2703453,-0.715398,bakery;cafe;establishment;food;point_of_interest;restaurant;store,4.6,209,,,644 09 49 69,
ChIJD2bWTVS2Yw0RQe0sU5kj2ns,Almuerzos Angel Comidas Cenas,"03206 Elche, Alicante, España",38.2752171,-0.7121831,establishment;food;point_of_interest;restaurant,,,,,,
ChIJS_azwvi3Yw0RTLp669yZXSk,Hamburguesería la Esquineta,"Carrer Pedro Moreno Sastre, 76, 03205 Elx, Alicante, España",38.2730175,-0.71327,establishment;food;point_of_interest;restaurant,4.8,18,,http://la-esquineta.eatbu.com/,865 55 28 02,
ChIJPbVRdgW3Yw0RyHYe1KIRY_s,Restaurante Cantó,"Carrer Eduardo Ferrández Garcia, 47, 03203 Elx, Alicante, España",38.2571272,-0.6939401,establishment;food;point_of_interest;restaurant,4.1,144,1,https://m.facebook.com/cerveceriacanto/?locale2=es_ES,965 45 50 62,
ChIJDxMBihG1Yw0RRF_Zv4ojuIM,La Taberna,"Calle Infante Don Manuel, 12, 03203 Elx, Alicante, España",38.2646084,-0.6952567,establishment;food;point_of_interest;restaurant,4.5,329,,,650 08 13 92,
ChIJD9-Gso22Yw0R_K_bdY9fh0U,Restaurante El Galliner,"Carrer Porta de la Morera, 27, 03203 Elx, Alicante, España",38.2643658,-0.6932759,establishment;food;meal_takeaway;point_of_interest;restaurant,4.3,338,1,,965 42 37 57,
ChIJbb2-TqO3Yw0R1Z5ydVX5Klo,Pura Vida GBR,"Carrer Manuel Vicente Pastor, 8, 03206 Elx, Alicante, España",38.2705425,-0.7047219,establishment;food;point_of_interest;restaurant,4.9,53,,,688 86 36 62,
ChIJgYpEfmrbxGURDrXQhEVQ2Gk,"""Momentos de amor"" detalles que enamoran( tienda online de regalos y decoración)","Carrer Alcalde Juan Hernández, 43, 03203 Elx, Alicante, España",38.2678028,-0.670561,establishment;florist;food;point_of_interest;restaurant;store,5,8,,https://momentosdeamor.my.canva.site/web-momentos-de-amor,653 05 06 25,
ChIJUxqlfKy3Yw0RT_Bjol3BISw,Kebab sirine,"Carrer Capità Alfons Vives, 03201 Elx, Alicante, España",38.2643986,-0.7098869999999999,establishment;food;point_of_interest;restaurant,4.4,169,1,,865 57 36 67,
ChIJw_VFkoe2Yw0RoOAvHirLuZ4,Restaurante Pak Pizzería Kebab,"Carrer Fèlix Laorden García, 1, 03202 Elx, Alicante, España",38.2717004,-0.6853412999999999,establishment;food;point_of_interest;restaurant,2.9,119,1,https://pakdonerkebab.makro.rest/?lang=es,966 09 92 12,
ChIJn7MB0Vm2Yw0RXCCaZajjoC8,King Pak Doner Kebab,"Carrer Ginés García Esquitino, 33, 03206 Elx, Alicante, España",38.2753404,-0.7051753,establishment;food;point_of_interest;restaurant,3.8,92,1,,865 55 09 48,
ChIJnfVGXvO2Yw0Rpi9Mm5htqKE,Restaurante La Retama,"Carrer Sant Pere, 9, 03202 Elx, Alicante, España",38.2668203,-0.6974172,establishment;food;point_of_interest;restaurant,4.5,718,2,https://www.facebook.com/La-Retama-Restaurante-Elche-106241964452697,965 05 97 62,
ChIJq8plhlC3Yw0RIqZdxV0NZ6E,Restaurante El Rincón De La Alcudia,"C. Cabezo Lucero, 6, 03290 Elche, Alicante, España",38.2442318,-0.6852680999999999,establishment;food;point_of_interest;restaurant,4.5,92,1,https://saliracomerbienenelche.com/elrincondelaalcudia/,604 40 29 08,
ChIJeWor9ci3Yw0R5vBhPOZVl44,Zahara Poke,"C/ Federico García Lorca, 126, 03204 Elx, Alicante, España",38.25526869999999,-0.70368,establishment;food;meal_takeaway;point_of_interest;restaurant,4.4,272,1,http://www.zaharapoke.com/,623 41 33 41,
ChIJPa8SY_62Yw0Rur5rjukw3_8,Asador de Pollos Parate Aki,"Carrer Juan Díez Martínez, 31, 03205 Elx, Alicante, España",38.2676817,-0.7131406000000001,establishment;food;meal_takeaway;point_of_interest;restaurant,4.6,84,1,,966 24 48 48,
ChIJ27d6clO3Yw0RmEOZFI-UpJI,Sono Più Ristorante Focacceria,"Carrer Conrado del Campo, 69, 03204 Elx, Alicante, España",38.2588906,-0.7041564,establishment;food;point_of_interest;restaurant,4.9,166,,https://www.sonopiu.com/,640 17 84 89,
ChIJH_xv1ru2Yw0RJ-nDQgloa-s,Restaurant El Borrocat,"03290 Elche, Alicante, España",38.2435783,-0.6914041,establishment;food;point_of_interest;restaurant,4.1,186,1,,697 76 23 34,
ChIJRbjUCbi3Yw0RADVG3wO6WBU,Goiko,"Centro Comercial L'Aljub, Carrer Jacarilla, 7, 03205 Elx, Alicante, España",38.2625643,-0.7214442,establishment;food;point_of_interest;restaurant,4.6,7481,2,https://www.goiko.com/,865 62 99 63,
ChIJp02cOAC3Yw0Rldc1IP3xSIU,restaurante bar jin,"Avinguda de Novelda, 90, 03206 Elx, Alicante, España",38.274741,-0.713272,establishment;food;point_of_interest;restaurant,5,1,,,,
ChIJ57hzCvm2Yw0RHaMec5Lv234,Restaurante Ni Hao,"Av. de la Llibertat, 86, 03205 Elx, Alicante, España",38.2687715,-0.7087372,establishment;food;point_of_interest;restaurant,4,465,1,,966 66 18 06,
ChIJv6sEb_O2Yw0R28tA_8PhK-c,TGB - The Good Burger,"Plaça de les Flors, 12, 03202 Elx, Alicante, España",38.2662584,-0.6978806,establishment;food;point_of_interest;restaurant,3.8,1643,1,https://thegoodburger.com/es,,
ChIJBdKdF1O3Yw0RZjiotbVClXg,"Jutashi, sushi & café","Plaça de la Fruita, 6, 03202 Elx, Alicante, España",38.2660884,-0.6982722,establishment;food;point_of_interest;restaurant,4.8,206,,https://www.jutashi.es/,640 82 18 32,
ChIJCXXsP_C2Yw0RfUW0YnM3Ta0,Pizzaelx,"C/ Mariano Benlliure, 14, 03201 Elx, Alicante, España",38.2630047,-0.7045313000000001,establishment;food;point_of_interest;restaurant;store,4.5,155,1,,966 67 28 43,
ChIJifM4Sf-2Yw0Rry_2OwtEqYw,Restaurante Chino Gran Suerte,"Carrer Asunción Parreño García, 8, 03205 Elx, Alicante, España",38.271253,-0.710835,establishment;food;point_of_interest;restaurant,4.1,591,1,https://www.instagram.com/gransuerterestaurante/,966 66 03 47,
ChIJGR2YgFi2Yw0Rj_8zL7kqySY,Bar restaurante La Callosina,"Carrer Mario Pastor Sempere, 15, 03206 Elx, Alicante, España",38.27254569999999,-0.7033687,bar;establishment;food;point_of_interest;restaurant,4.3,131,1,,669 93 66 17,
ChIJtW8EDS63Yw0RBU_RXUdrB34,Catering Coquere,"C. Velarde, 25, 03202 Elx, Alicante, España",38.2656663,-0.6936472,establishment;food;point_of_interest;restaurant,4.8,33,,https://www.coquere.es/,966 20 11 54,
ChIJPYajTP62Yw0R5P0NMDHIMNo,Doner Kebab Hamma حلال,"kebab parque valencia, Carrer Monserrate Guilabert Valero, 64, 03205 Elx, Alicante, España",38.2695349,-0.7136026,establishment;food;point_of_interest;restaurant,3.8,733,1,https://www.donerkebabhamma.com/,966 21 40 49,
ChIJVQ7P7oG2Yw0RZ22zHnpH2bo,Heladería La Jijonenca,"Carrer Benetússer, 3, 03203 Elx, Alicante, España",38.2679879,-0.6780925,establishment;food;point_of_interest;restaurant;store,4.2,378,1,https://www.jijonenca.es/,626 62 97 99,"Helados, granizados y turrones artesanos para llevar y tomar en una cadena de heladerías de diseño moderno."
ChIJ_ag4coe2Yw0RSDoOd_WHVSU,Restaurante Pizzería L Antica Pompei,"Carrer Bisbe Winibal, 22, 03202 Elx, Alicante, España",38.2713274,-0.6837974,establishment;food;point_of_interest;restaurant,4.5,1141,2,https://anticapompei.com/,966 61 17 33,"Mozzarella frita y berenjenas rellenas, carpaccio de pulpo y pizzas al horno de leña en salón con arte romano."
ChIJww91JUi3Yw0RxlqL08LkCHw,Casa Simon Comidas Para Llevar,"Carrer Benicassim, 2, local 2, 03202 Elche, Alicante, España",38.26856859999999,-0.6880210999999999,establishment;food;point_of_interest;restaurant,4.1,178,,https://casasimonelche.es/,656 55 70 49,
ChIJGSfQk723Yw0RYZNd_znVVM4,77 buffet libre,"Carrer Antonio Machado, 72, 03201 Elx, Alicante, España",38.2617824,-0.7115897999999999,establishment;food;point_of_interest;restaurant,4.7,30,,,966 57 74 86,
ChIJM94L9CS0Yw0R9e9TSniWLGI,Fusion Cuisine,"03290, Alicante, España",38.2582612,-0.6699064000000001,establishment;food;point_of_interest;restaurant,4.3,24,,,966 61 53 80,
ChIJjW0OWlBMYg0R1Vi3DimvnPM,Parrillada Milaneseria Mi Paysito 🇺🇾,"Carrer Pere Ibarra, 6, 03202 Elx, Alicante, España",38.2666237,-0.6959001,establishment;food;point_of_interest;restaurant,4.4,443,1,,965 42 30 82,
ChIJ-QvTsfa2Yw0RtHVSoOMNFWc,El Mariscal Elche (NUEVA ADMINISTRACION ),"C. Blas Valero, 39, 03201 Elx, Alicante, España",38.2674955,-0.7017062,establishment;food;meal_takeaway;point_of_interest;restaurant,4.2,62,,,965 03 20 02,
ChIJ7QflF9a3Yw0R958ON6wQ1hs,restaurante Ismael,"Carrer Fra Jaume Torre, 7, 03204 Elx, Alicante, España",38.2580083,-0.7034573,establishment;food;point_of_interest;restaurant,5,1,,,914 087 510,
ChIJz-l6x4y2Yw0RNqoTH9KnWGY,Green Sushi Elche,"Plaça de la Constitució, 15, 03203 Elx, Alicante, España",38.2657267,-0.6955461,establishment;food;point_of_interest;restaurant,4.4,739,2,http://greensushi.es/,966 22 22 00,Dibujos de pescado y platos japoneses decoran este restaurante especializado en variedad de sushi más gyoza.
ChIJhTpZguW2Yw0Ro7YrXevydtw,Pizzarica Elche,"C. Pere Joan Perpinyà, 66, 03204 Elx, Alicante, España",38.2589679,-0.7061826999999999,establishment;food;point_of_interest;restaurant,4.1,183,1,,966 63 06 38,
ChIJ0cv1Gn-2Yw0RVempDiTMvdc,Asador RICOPOLLO (plaza castilla) nuevo altabix,"Carrer Alfredo Mira Gran, 7, 03202 Elx, Alicante, España",38.2758983,-0.6793958,establishment;food;point_of_interest;restaurant,4.2,304,,https://m.facebook.com/pages/ricopollo-Elche/337960332911231,965 42 94 26,
ChIJyegzBfu2Yw0RUgIpJyiVET8,Kebap Snack Al-Andalus,"Carrer Dr. Ferrán, 59, 03201 Elx, Alicante, España",38.2637183,-0.7086498999999999,establishment;food;point_of_interest;restaurant,3,1,,,965 04 98 75,
ChIJx10MPMC3Yw0RFtYXuGJbWiU,Restaurante Paco Gil,"Carrer Sucre, 10, 03202 Elx, Alicante, España",38.2729607,-0.6792368999999999,establishment;food;point_of_interest;restaurant,4.2,364,,https://www.restaurantepacogil.com/,965 92 80 33,
ChIJM1nZo5C3Yw0ROGZ-nE59-3E,Empanadas Malvón,"C/ Hospital, 7, 03203 Elx, Alicante, España",38.2654392,-0.6973924,establishment;food;grocery_or_supermarket;meal_takeaway;point_of_interest;restaurant;store,4.8,414,,https://www.malvon.es/tiendas,865 52 90 13,
ChIJwbyub3a3Yw0R9ju8vgTl7EI,Tanni Sushi Elche,"Carrer Orihuela, 9, 03203 Elx, Alicante, España",38.2689368,-0.6777749,establishment;food;meal_delivery;meal_takeaway;point_of_interest;restaurant,4.7,181,,https://wa.me/34622474652,622 47 46 52,
ChIJj9L4TGa3Yw0RqRZZkPbipEE,Ali Baba Döner Kebab,"Carrer León Sánchez Sáez, 22, 03205 Elx, Alicante, España",38.2670131,-0.7135299,establishment;food;point_of_interest;restaurant,2.6,13,,,631 66 37 28,
ChIJTdugnOi1Yw0R7hayZNqKP2s,The Cool Cat Bar & Cafe,"Carrer Mallorca, 41, 03203 Elx, Alicante, España",38.2705653,-0.6708147999999999,establishment;food;point_of_interest;restaurant,,,,,,
ChIJ74-o-FW2Yw0RaEXjOG-1QFI,Bar restaurante Mallorca,"Avinguda de Novelda, 51, 03205 Elx, Alicante, España",38.272267,-0.7108725,bar;cafe;establishment;food;point_of_interest;restaurant,4.1,756,1,http://restaurantebarmallorca.metro.bar/,966 24 05 76,
ChIJi1E9thy3Yw0RP5tSYJlq57c,Restaurante Spazio,"Avinguda de Crevillent, 10, 03205 Elx, Alicante, España",38.2612468,-0.7188747,establishment;food;point_of_interest;restaurant,4.1,1029,2,https://saliracomerbienenelche.com/spazio/,654 33 88 97,
ChIJj_pKSPO2Yw0RRdXNalWZGLY,Restaurante Don Patata,"Plaça Glorieta, 10, 03203 Elx, Alicante, España",38.2658396,-0.6967377,establishment;food;point_of_interest;restaurant,3.9,53,,,,
ChIJZ9VW6QS3Yw0R-IgZ7AFGzdc,Lizarran,"C/ Jacarilla, Centro comercial L'Aljub, 7, Local A-12, 03205 Elche, Alicante, España",38.2632843,-0.7214391,bar;establishment;food;point_of_interest;restaurant,4.2,742,1,https://www.lizarran.es/,673 09 16 78,Barra de pintxos de cocina en miniatura y zuritos de cerveza o vino en cadena de tabernas vascas autoservicio.
ChIJPyFhHj23Yw0RHzBnhCa6SLo,EL ASADOR PLATENSE,"C. Velarde, 3, 03203 Elx, Alicante, España",38.266088,-0.6950931,establishment;food;point_of_interest;restaurant,4.7,395,,https://elasadorplatense.eatbu.com/,865 71 85 25,
ChIJedMNOii3Yw0RsM3ax9v3ZYU,Kairoos Comida para llevar,"Partida Altabix, 1203, 03207 La Galia, Alicante, España",38.2832515,-0.6835688,establishment;food;meal_takeaway;point_of_interest;restaurant,4.5,18,,https://glovoapp.com/es/es/elche/kairoos-elche/,604 97 81 67,
ChIJPRRwE4u2Yw0RRONSBcPECY0,Il Mondo Della Pizza,"Carrer Luis Gonzalez Llorente, 1, 03202 Elx, Alicante, España",38.268524,-0.6947645,establishment;food;point_of_interest;restaurant,4.6,213,1,https://www.facebook.com/Il-Mondo-Della-Pizza-ELCHE-405317196153992/,966 24 69 00,
ChIJRcUKymm3Yw0RQ4GJhtYi14c,Magdalenas y Algo Más Tartas en Elche,"C. Vicent Andrés Estellés, 28, 03202 Elche, Alicante, España",38.2724164,-0.6802883,bakery;establishment;food;home_goods_store;point_of_interest;restaurant;store,4.7,162,,https://www.facebook.com/magdalenasyalgoma/,680 54 54 79,
ChIJLSHETge3Yw0R3vQjEV4BEMw,Infraganti Pizza Bar | Pizzería Elche,"Plaça de la Constitució, 1, 03203 Elx, Alicante, España",38.2660209,-0.695275,establishment;food;point_of_interest;restaurant,4.5,1073,2,http://infragantipizza.com/,965 02 70 06,
ChIJfUv-eBO3Yw0RHwtNLRoTACU,Taj Mahal,"Av. de Alicante, 51, E 01, 03202 Elche, Alicante, España",38.2695216,-0.6830288999999999,establishment;food;point_of_interest;restaurant,4.9,171,,https://saliracomerbienenelche.com/tajmahal/,631 81 13 07,
ChIJa9iitZkN86URA9kBXdGUNno,SURPRISE BREAKFAST | Desayunos Sorpresa,"Carrer Capità Alfons Vives, 95, 03204 Elx, Alicante, España",38.2608896,-0.7101027,establishment;florist;food;meal_delivery;point_of_interest;restaurant;store,5,31,,https://sbelche.wixsite.com/surprisebreakfast,641 03 83 84,
ChIJpW0XY_K2Yw0R8EfzEwO4aOg,Venta del Camino de Santiago,"Carrer Juan Ramón Jiménez, 15, 03203 Elx, Alicante, España",38.2627222,-0.6988824,establishment;food;point_of_interest;restaurant,4.5,447,2,,617 90 43 13,
ChIJBbUgv1K3Yw0RVyfb4UWhXZQ,Bar Nou picadero,"Carrer Esperidion Porta Requesens, 2, 03206 Elx, Alicante, España",38.2750897,-0.7032976,establishment;food;point_of_interest;restaurant,3.9,8,,,,
ChIJX6K161i3Yw0RS3AIG_rbF9Q,Flashpoint Súper Hot Dogs,"Carrer Troneta, 4, 03203 Elx, Alicante, España",38.2649501,-0.698406,establishment;food;point_of_interest;restaurant,4.6,147,,,673 46 23 96,
ChIJr2ylJVa2Yw0RZAsg7h4X0sw,Pollos Asados Al'ast,"Carrer Germans Navarro Caracena, 47, 03206 Elx, Alicante, España",38.2727283,-0.7088529,establishment;food;point_of_interest;restaurant,,,,,,
ChIJuShaRvC2Yw0RjIikbTs4Ktk,Supermercado Dialprix,"Carrer Andreu Castillejos, 42, 03201 Elx, Alicante, España",38.2632792,-0.7041529,bakery;establishment;food;grocery_or_supermarket;meal_takeaway;point_of_interest;restaurant;store;supermarket,3.6,29,,https://dialprix.es/centro/supermercado-dialprix-elx-carrer-jose-maria-peman-42/?utm_source=G&utm_medium=Local&utm_campaign=Google-Local,966 66 69 16,
ChIJG0Ei4e23Yw0RIMfRObL654E,Punto Criollo Elche,"Carrer Aurelio Coquillat Pascual, 60, 03204 Elx, Alicante, España",38.2609737,-0.712164,establishment;food;point_of_interest;restaurant,4.7,57,,https://puntocriolloelche.com/,622 14 13 52,
ChIJ1WY2XwC3Yw0RCbW808ZHQuc,"La Esquina Del Pollo, Halal","Carrer León Sánchez Sáez, 03205 Elx, Alicante, España",38.2670131,-0.7135299,establishment;food;point_of_interest;restaurant,4.8,26,,https://www.instagram.com/laesquinadelpollo.elx?igsh=cW1ydXc5MWd4N3A3&utm_source=qr,641 07 07 18,
ChIJFRKC6oS3Yw0R3b90HAgwJoY,Bar y restaurante el buen hijo,"Carrer José Navarro Orts, 03206 Elx, Alicante, España",38.2689744,-0.7113931,bar;establishment;food;point_of_interest;restaurant,4.2,146,,,965 14 43 85,
ChIJGY4Ipte3Yw0Rzp1jaBQ3dtE,La Tía Juana Elche ️,"Carrer de la Diagonal del Palau, 8, 03202 Elx, Alicante, España",38.2680505,-0.6972533,establishment;food;point_of_interest;restaurant,4.3,1858,2,http://latiajuanamx.com/,854 62 83 14,
ChIJG1p3yNq3Yw0RG3Rx8Vfrslw,La Saga,"C. de la Victoria, 2, 03202 Elx, Alicante, España",38.2657926,-0.6979263,establishment;food;point_of_interest;restaurant,4.1,112,,,666 26 66 50,
ChIJ2eT7-tW3Yw0R19-a0B8-_-o,La Brasa Global,"Carrer Antonio Machado, 90, 03201 Elx, Alicante, España",38.26120909999999,-0.714884,bar;establishment;food;point_of_interest;restaurant,4.9,162,,https://www.instagram.com/labrasaglobal/,624 27 65 67,
ChIJo4cRVvK2Yw0RGTJVO5_NBf4,El Garaje Bar Elche,"Travessia de les Barques, 2, 03203 Elx, Alicante, España",38.2643144,-0.6985196,bar;establishment;food;meal_delivery;meal_takeaway;point_of_interest;restaurant,4.4,1919,1,https://www.elgarajebar.es/,,
ChIJLT_Xmfa2Yw0RReLiqGI5_AA,PERSIA RESTAURANTE - BAR - CAFETERIA,"C. Blas Valero, 59, 03201 Elx, Alicante, España",38.2685103,-0.7016471999999999,bar;establishment;food;point_of_interest;restaurant,4.3,1135,,,965 43 25 99,
ChIJN8FkcIO2Yw0RtpDfcD5zsBs,LOS PRIMOS,"Carrer Morera, 31, 03203 Elx, Alicante, España",38.2639994,-0.6814152,establishment;food;point_of_interest;restaurant,,,,,,
ChIJC8oJqVa2Yw0ROp8HLKQTrRA,Mare Meua Bar-Restaurante,"Carrer Jeremias Pastor Perez, 1, bajo, 03206 Elx, Alicante, España",38.2771552,-0.7105680999999999,bar;establishment;food;point_of_interest;restaurant,4.4,611,1,http://maremeua.eatbu.com/,645 84 98 35,
ChIJbyC-MfG2Yw0RIw0tg_fks48,Bar restaurante Luceros Gourmet,"C. del Marquès d'Asprilla, 27, Bajo 1, 03201 Elche, Alicante, España",38.2665911,-0.7027103000000001,bar;establishment;food;point_of_interest;restaurant;store,4.1,597,2,,966 60 16 20,
ChIJo7Ibj9e3Yw0Rolh2MqgtI30,Restaurante Tapería el Jamón,"Carrer Antonio García Cayuelas, 52, 03206 Elx, Alicante, España",38.2752384,-0.7121803999999999,establishment;food;point_of_interest;restaurant,4.7,198,,https://www.instagram.com/restaurante_taperia_el_jamon/,627 52 78 53,
ChIJq-OHKvq2Yw0R5Ysz4xDrqhw,La Taberna,"Pl. del Bisbe Siuri, 4, 03201 Elx, Alicante, España",38.2669722,-0.7080403,establishment;food;point_of_interest;restaurant,3.8,405,1,,686 33 14 57,
ChIJl8woneS2Yw0RAnkTWgsNfRI,Cofradía Dama De Elche,"Carrer Capità Alfons Vives, 98, 03204 Elx, Alicante, España",38.2597808,-0.7104623,establishment;food;point_of_interest;restaurant,4.2,51,,,,
ChIJK6DrYiu3Yw0Rdq3t6s6ZVGA,Come y Calla - Elche - Comida para llevar,"Carrer Banyeres, 3, 03203 Elx, Alicante, España",38.26968069999999,-0.6790898000000001,establishment;food;meal_takeaway;point_of_interest;restaurant,4.5,180,,,614 16 79 71,
ChIJJ_FgyvS2Yw0RG4PJtgMWeBU,SUNSET SHISHA LOUNGE,"C. Mestre Albéniz, 1, 03202 Elx, Alicante, España",38.2682316,-0.6968599999999999,bar;establishment;food;night_club;point_of_interest;restaurant,4.3,115,,https://www.instagram.com/sunset_shisha/,,
ChIJVTklP9O1Yw0RERM7b6j1wr4,Restaurante Yaho,"Carrer José Luis Navarro Campello, 2, 03202 Elx, Alicante, España",38.2736889,-0.6712861,establishment;food;point_of_interest;restaurant,4.1,1518,1,http://yahoaltabix.com/,966 09 96 60,"Elegante sala con puerta antigua de madera y jardín vertical para platos como sushi, ternera wagyu o pad thai."
ChIJgaSljdW1Yw0RpkyX1dZawGk,McDonald's,"Ctra. N 340, Alicante a Murcia, Poligono Industrial d'Altabix, Sector E25, 03203 Elche, Alicante, España",38.272468,-0.6691644999999999,establishment;food;point_of_interest;restaurant,3.6,2799,1,https://mcdonalds-mcdelivery.es/,966 61 44 14,"Cadena de restaurantes de comida rápida de larga trayectoria, famosa por sus hamburguesas y patatas fritas."
ChIJmfIptPS2Yw0R_74O1u8ftHU,Mesón El Parque Restaurant,"Carrer Portell de Granyana, 8, 03202 Elx, Alicante, España",38.268637,-0.6964665,establishment;food;point_of_interest;restaurant,4.1,410,1,https://restaurantemesonelparque.webnode.es/,965 45 11 59,
ChIJr4xL8SS0Yw0R-zqn-BC2cB0,Restaurante Kisuki,"Partida alza ares allto, 03290 Elche, Alicante, España",38.2579694,-0.6703652999999999,establishment;food;point_of_interest;restaurant,4.2,3146,2,https://restaurantekisuki.com/,966 61 53 80,
ChIJv3nU9Vi2Yw0Rq_gFcc_qAbY,Supermercado Dialprix,"Carrer Antonio Martínez García, 50, 03206 Elx, Alicante, España",38.2737776,-0.7032196,bakery;establishment;food;grocery_or_supermarket;meal_takeaway;point_of_interest;restaurant;store;supermarket,3.8,30,,https://dialprix.es/centro/supermercado-dialprix-elx-carrer-antonio-martinez-garcia-50/?utm_source=G&utm_medium=Local&utm_campaign=Google-Local,965 43 31 98,
ChIJUd12fDq3Yw0RsREbNIGq_kg,Cocina Con Kike,"Carrer Reina Victoria, 128, 03201 Elx, Alicante, España",38.2657024,-0.7099458,establishment;food;point_of_interest;restaurant,5,7,,https://www.youtube.com/channel/UCS2X3HNU3-6l6-AAJbFb97Q,,
ChIJb9ukI1a2Yw0RCwdBiOUA98k,Super diagonal 24 horas Panaderia pastelería bolleria pizzería,"Carrer de la Diagonal, 60, 03205 Elx, Alicante, España",38.2727394,-0.7091328,bakery;establishment;finance;food;grocery_or_supermarket;meal_takeaway;point_of_interest;restaurant;store;supermarket,3.9,76,,,865 71 45 72,
ChIJXWlP-pS3Yw0R7F1uVFyrhAI,Cafetería Vibras,"Carrer Mare de Déu del Carme, 11, 03203 Elx, Alicante, España",38.26461949999999,-0.6989327,cafe;establishment;food;meal_takeaway;point_of_interest;restaurant;store,4.9,49,,,694 22 29 54,
ChIJWSJrcQC3Yw0R1tcYX5hd7aE,LasTricato,"Carrer Empedrat, 4, 03203 Elx, Alicante, España",38.2659375,-0.6958675999999999,establishment;food;point_of_interest;restaurant,5,301,,https://lastricato.es/,865 58 54 49,
ChIJ1eTCq_u2Yw0R5sQqPTgixho,Supermercado Dialprix,"Carrer Poeta Miguel Hernandez, 78, 03201 Elx, Alicante, España",38.264672,-0.7084100999999999,bakery;establishment;food;grocery_or_supermarket;meal_takeaway;point_of_interest;restaurant;store;supermarket,3.8,78,,https://dialprix.es/centro/supermercado-dialprix-elx-carrer-poeta-miguel-hernandez-78/?utm_source=G&utm_medium=Local&utm_campaign=Google-Local,966 67 35 74,
ChIJfzGYZ_O2Yw0RI2GM-mfxMLc,Comidas Para Llevar,"C/ Alvado, 25, 03202 Elx, Alicante, España",38.2666377,-0.6974513,establishment;food;point_of_interest;restaurant,3.5,6,,,,
ChIJ2csr_vK2Yw0R4_8SRY_tFAY,Mestizaje by Tomás López,"Mare de Déu, Carrer Mare de Déu dels Desamparats, 13, 03203 Elx, Alicante, España",38.2644376,-0.6984902,establishment;food;point_of_interest;restaurant,4.5,2935,2,http://linktr.ee/MestizajeElche,658 47 06 36,Restaurante moderno donde se sirven platos tradicionales con un toque innovador.
ChIJqRiLyB23Yw0RgcISAROpJ0c,La Latina Restaurante,"C. Mestre Albéniz, 11, 03202 Elx, Alicante, España",38.2684959,-0.6955484,establishment;food;point_of_interest;restaurant,4.5,398,,https://lalatina.bar/,623 43 51 69,
ChIJ86cxUwC3Yw0RA67EPMH9Bxo,Dieci 10 Elche,"Carrer Major del Pla, 11, 03204 Elx, Alicante, España",38.2630425,-0.7015949,establishment;food;point_of_interest;restaurant,4.5,35,,,607 41 36 09,
ChIJBeeLPi20Yw0RlWy8UW1OYqY,Agora Lounge,"Plaza 8 De Marzo, bajo, 03203 Elche, Alicante, España",38.2711619,-0.6692372999999999,establishment;food;point_of_interest;restaurant,4,465,2,https://agoraloungebar.com/,966 16 29 74,
ChIJccWTcwC1Yw0RO9dSljxnqfE,P del TRI,"Carrer Sabadell, 17, 03203 Elx, Alicante, España",38.2700367,-0.6723812,establishment;food;point_of_interest;restaurant,,,,,,
ChIJpesieRS3Yw0RlQ4L3mzm0M0,Supermercado Dialprix,"Av Del Bimilenario, S/n, 03207 La Galia, Alicante, España",38.2830933,-0.6835867000000001,bakery;establishment;food;grocery_or_supermarket;meal_takeaway;point_of_interest;restaurant;store;supermarket,4.8,14,,https://dialprix.es/centro/supermercado-dialprix-la-galia-av-del-bimilenario-s-n/?utm_source=G&utm_medium=Local&utm_campaign=Google-Local,965 42 14 48,
ChIJM6VnYbK3Yw0RvH3N_qtkOFo,La natural,"Carrer Reina Victoria, 69, 03201 Elx, Alicante, España",38.2653461,-0.7058175999999999,establishment;food;meal_takeaway;point_of_interest;restaurant,4.7,77,1,,697 78 16 91,
ChIJMScQB_m2Yw0RwRV30Tt-bXU,100 Montaditos,"Plaza Chimeneas, Av. de la Llibertat, 74, 03205 Elx, Alicante, España",38.269246,-0.7082042,bar;establishment;food;point_of_interest;restaurant,3.9,923,1,https://spain.100montaditos.com/es/,913 51 90 01,"Cadena de restaurantes decorada como una taberna que sirve cerveza y vino, con muchas variedades de montaditos españoles."
ChIJ858Fxr-3Yw0RhDsUSnhla24,Alma Concept Bar,"Carrer Espronceda, 124, 03204 Elx, Alicante, España",38.2547726,-0.7067996,bar;establishment;food;point_of_interest;restaurant,4.6,408,,http://almaconcept.es/,865 83 91 11,
ChIJa6WPuOu3Yw0RbtDOVHqs3bg,PINO PIZZERIA E CUCINA ITALIANA,"Carrer Francisco Vicente Rodriguez, 9, 03202 Elx, Alicante, España",38.2705029,-0.6872023,establishment;food;point_of_interest;restaurant,4.6,16,,,603 28 53 27,
ChIJs9PtFom3Yw0R823Ah2bNjE0,DON POLLO,"Carrer Pío Baroja, 4, 03203 Elx, Alicante, España",38.2683046,-0.6860339,establishment;food;meal_takeaway;point_of_interest;restaurant,4.8,73,,,865 55 39 34,
ChIJV05JhIy2Yw0RhP7xVuferUs,Los Fogones De Zeron,"Avinguda en Joan Carles I, 13, 03203 Elx, Alicante, España",38.2666435,-0.6943707,establishment;food;meal_takeaway;point_of_interest;restaurant,3.7,61,,https://www.losfogonesdezeron.com/,652 90 62 72,
ChIJu4b_Afy2Yw0RpDNkgbdfV1Y,CARLA Comidas Para Llevar,"Carrer Mariano Perez Vives, 5, 03205 Elx, Alicante, España",38.266946,-0.7108620000000001,establishment;food;meal_takeaway;point_of_interest;restaurant;store,4.4,180,1,,966 67 28 11,
ChIJ6cEFQeu2Yw0ROjdhIB7-CPY,ASADERO COSTRERIA EL SOL Av/ Dolores 29,"Av. de Dolores, 29, 03203 Elx, Alicante, España",38.2553176,-0.6972423,establishment;food;point_of_interest;restaurant,4.4,106,1,,965 42 84 01,
ChIJn-ebJQC3Yw0R1knMNbH0Sbw,Mátame cervecería,"Carrer Antonio González Beltráni, 10, 03203 Elx, Alicante, España",38.264845,-0.6970413999999999,bar;establishment;food;point_of_interest;restaurant,4.8,32,,,648 65 10 59,
ChIJ2TYFzk23Yw0Roia6ql1R0ec,Alma Andaluza comida para llevar,"C/ Pablo Picasso, 18, 03204 Elx, Alicante, España",38.2577605,-0.7039846,establishment;food;meal_takeaway;point_of_interest;restaurant,4.3,34,,,640 53 85 46,
ChIJWeD4T-S2Yw0RJPsDkuEtf4U,Restaurante El Meloso,"Carrer Fra Jaume Torre, 44, 03204 Elx, Alicante, España",38.25843,-0.7088399999999999,bar;establishment;food;point_of_interest;restaurant,4.4,1188,2,http://www.elmeloso.com/,865 52 69 89,
ChIJr5-RDv62Yw0Ru8v03jBbbkM,River Café,"Carrer León Sánchez Sáez, 49, 03205 Elx, Alicante, España",38.2673836,-0.7144878,bar;cafe;establishment;food;point_of_interest;restaurant;store,4.2,459,1,http://rivercafeelche.wordpress.com/,,"Bocadillos, ensaladas y tapas en una cafetería de toda la vida con deportes televisados, barra y terraza."
ChIJKfaAQ4u2Yw0Rc1NqjOR6SWk,Columpio Bar,"C/ Sant Agatàngel Patró d'Elx, 1, 03202 Elx, Alicante, España",38.2679109,-0.6954505999999999,establishment;food;point_of_interest;restaurant,4.6,658,1,https://columpiobar.es/,690 80 08 62,
ChIJBeQpNgC3Yw0R0nAT0hQO44U,D'Tívoli Restaurante,"Carrer Juan Díez Martínez, 77, 03205 Elx, Alicante, España",38.2701133,-0.7171096,establishment;food;point_of_interest;restaurant,4.4,313,1,https://www.facebook.com/PizzeriaDTivoli/,966 67 27 14,
ChIJcffqRgC3Yw0RaGIZpCyLPr4,Restaurante La mano de Fatima,"Carrer Juan Sansano Ibarra, 1, 03205 Elx, Alicante, España",38.2710748,-0.7142763999999999,establishment;food;point_of_interest;restaurant,4.9,132,,,632 72 19 92,
ChIJV1HzX3O3Yw0ReShNZd1hMmw,Tres 73 Restaurante,"Carrer Jose Maria Soler Agulló, 28, 03205 Elx, Alicante, España",38.2679655,-0.7117144,establishment;food;point_of_interest;restaurant,4.9,37,,,614 15 82 11,
ChIJpYHLv_-2Yw0R6wNVKVUodFU,Tapería Cafetería La Hellinera,"Carrer José Díez Mora, 71, 03205 Elx, Alicante, España",38.27083450000001,-0.7139141,bar;cafe;establishment;food;point_of_interest;restaurant;store,4.5,212,1,,965 29 63 13,
ChIJAYMEvda1Yw0RGozmwAg9dh8,Restaurante el Antojito,"Carrer Josefina Manresa, 107, 03202 Elx, Alicante, España",38.2784423,-0.6735,establishment;food;point_of_interest;restaurant,4.4,860,2,http://elantojito.com/,618 63 64 47,Moderno comedor con banco corrido y colorido arte donde degustar solomillo con foie o tartar de vieiras.
ChIJCdOE-9S3Yw0RLXOA9A8ndp0,Veranda Garden Bar,"Carrer Porta de la Morera, 14, 03203 Elx, Alicante, España",38.2637394,-0.6922497999999999,bar;establishment;food;point_of_interest;restaurant,4.6,113,,https://www.porthotels.es/restaurante-veranda.html,966 61 00 11,
ChIJldyWaFe2Yw0RMqjuk3kNIHo,Supermercados Dia,"Carrer Francisco Tomás y Valiente, 20, 03206 Elx, Alicante, España",38.2760858,-0.7064933,bakery;establishment;food;grocery_or_supermarket;point_of_interest;restaurant;store;supermarket,3.9,269,,https://www.dia.es/,912 17 04 53,"Alimentación, bebidas, droguería y perfumería en supermercados con productos propios y de primeras marcas."
ChIJ5-3sNwC3Yw0RMup_k9AJ8jE,American Vintage bar,"Carrer Mare de Déu del Carme, 11, 03203 Elx, Alicante, España",38.26433919999999,-0.6988525999999999,establishment;food;point_of_interest;restaurant,5,17,,,,
ChIJ4eHYUz-3Yw0Rm4esqfEmTTU,Tyha kebab,"Carrer José Navarro Orts, 66, 03205 Elx, Alicante, España",38.2670404,-0.7134596,establishment;food;point_of_interest;restaurant,4,3,,,631 66 37 28,
ChIJsbfWncm3Yw0RnOaWUZhqOgM,joplajoma,"C. Escultor Capuz, 5, 6º dcha, 03203 Elche, Alicante, España",38.2661937,-0.6929657000000001,establishment;food;meal_takeaway;point_of_interest;restaurant,,,,,,
ChIJ-ZoAvv62Yw0R7ruP9GFZ1es,Freiduria,"Carrer Jose Maria Soler Agulló, 26, 03205 Elx, Alicante, España",38.267969,-0.7117015,establishment;food;point_of_interest;restaurant,,,,,,
ChIJdfhQoy23Yw0RGkSCgVpaED8,MARCELINO,"Carrer Sant Jaume, 4, 03202 Elx, Alicante, España",38.2659711,-0.6975577,establishment;food;point_of_interest;restaurant,4.5,60,,,966 09 42 00,
ChIJx9sSmm23Yw0RjmFa9FiJyCo,Bombay Hindu restaurant Elche,"Carrer los Montesinos, 20, bajo 2, 03203 Elx, Alicante, España",38.2660568,-0.6772745,establishment;food;point_of_interest;restaurant,4.8,283,1,http://bombayelche.com/,747 46 90 42,
ChIJ7dJQA6i1Yw0R_XMKHxo3avA,Asadero Lis Altabix | Comidas para llevar,"Av. d'Alacant, 91, 03202 Elx, Alicante, España",38.27096,-0.67774,establishment;food;meal_takeaway;point_of_interest;restaurant,4.4,60,,,965 97 70 11,
ChIJefio8d63Yw0Rn858fbQZkGQ,La Barra del Músico,"Carrer Porta de la Morera, 15, 03203 Elx, Alicante, España",38.2644417,-0.6941794,establishment;food;point_of_interest;restaurant,4.9,480,2,http://labarradelmusico.wordpress.com/,614 13 12 33,
ChIJD6wfLvO2Yw0RI60ibAo9eLQ,"Nutrición Selecta Mediterránea - Nutricionista deportivo, clínico, infantil, vegano, oncológico, embarazadas y bajar de peso","C/ Alvado, 2, Bajo, 03202 Elx, Alicante, España",38.2664348,-0.698623,establishment;food;health;point_of_interest;restaurant,4.9,57,,https://www.nutricionselecta.es/,626 23 19 02,
ChIJzWhdBWS3Yw0RUcrFUl860Cs,Pinseria Basile | Elx,"Carrer José García Ferrández, 1, 03205 Elx, Alicante, España",38.2690697,-0.7097218,establishment;food;meal_delivery;meal_takeaway;point_of_interest;restaurant,4.6,431,1,https://pinseriailgranobasile.es/carta/,966 16 72 61,
ChIJoXJLKIa2Yw0RWVG1O-qCAbo,Altabix Turca,"03202 Elche, Alicante, España",38.2692768,-0.6867409999999999,establishment;food;point_of_interest;restaurant,,,,,,
ChIJW5a2BDG3Yw0R94dbxthzF7I,Abuela Mary,"C. Fuensalida, 3, 03293 La Peña de las Águilas, Alicante, España",38.2595102,-0.7369454,establishment;food;point_of_interest;restaurant,4.8,5,,,615 73 41 31,
ChIJO8aTUou2Yw0RoHaRJZ7roJ8,Flaherty's,"Passeig Eres de Santa Llúcia, 13, 03202 Elx, Alicante, España",38.2676399,-0.6962189999999999,bar;establishment;food;point_of_interest;restaurant,4.1,1416,1,https://es-es.facebook.com/pages/category/Pub/Flahertys-164249860330572/,966 24 04 87,
ChIJq_kpaKy3Yw0RdsoIdW0IirA,Porta d'Elx Restaurant,"03206, Alicante, España",38.2787999,-0.7183721,establishment;food;point_of_interest;restaurant,3.4,184,1,,965 45 20 18,
ChIJWdG8ugG3Yw0RbXrH3T34OiA,Restaurante Paradais Cafetería,"Carrer León Sánchez Sáez, 85, 03205 Elx, Alicante, España",38.2689205,-0.7171033,establishment;food;point_of_interest;restaurant,2.2,13,,,,
ChIJe4O5NYC2Yw0RcXwUPwfa1xU,Restaurante Hong Kong III,"Carrer Orihuela, 4, 03203 Elx, Alicante, España",38.2697096,-0.6784619,establishment;food;point_of_interest;restaurant,4,656,1,https://www.facebook.com/Restaurante-Chino-Hong-Kong-III-Elche-1158232030856924/,965 42 67 87,
ChIJ58_1WSS3Yw0RtRPDFv2Bp4o,Ca Tona Restaurante,"Partida Algorós, P-1-261, 03293 Elche, Alicante, España",38.243584,-0.722333,establishment;food;point_of_interest;restaurant,4.1,1273,2,https://www.restauranteelchecatona.es/,966 63 09 49,
ChIJ-Qt6ReW2Yw0RVzS6Vd0wKKw,Cafeteria J.R,"03204 Elche, Alicante, España",38.2610274,-0.7064359,establishment;food;point_of_interest;restaurant,4.6,40,,,,
ChIJ_QmlOWa2Yw0R-W01_gbJVm8,Restaurante El castillo,"Partida Altabix, N84, polígono 1, 03207 Elx, Alicante, España",38.2823229,-0.6926496999999999,bar;establishment;food;point_of_interest;restaurant,4.4,522,1,,622 08 81 45,
ChIJHRwNAz63Yw0R4luys5KiQY4,CIRCO Elche Centro,"Carrer Mare de Déu dels Desamparats, 8, 03203 Elx, Alicante, España",38.2646124,-0.6987112,establishment;food;point_of_interest;restaurant,4.6,962,,https://circorestaurante.com/restaurantes/elche-centro/,865 60 93 57,
ChIJEWHsP_a2Yw0RmTr7U9ZW4-Y,Restaurante Al-jaima Bilal,"Av. de la Llibertat, 12, 03206 Elx, Alicante, España",38.271114,-0.7022821,establishment;food;point_of_interest;restaurant,4.2,243,1,,631 97 82 21,
ChIJVVW5W_C2Yw0RmdVMmNUS_EE,El Palacio Del Pollo,"Carrer Andreu Castillejos, 28, 03201 Elx, Alicante, España",38.2639539,-0.7042027,establishment;food;point_of_interest;restaurant,1.5,2,,,,
ChIJB7InpcG3Yw0RbJbEegbg-pY,MalaBarraca,"Carrer Mariano Luiña, 16, 03201 Elx, Alicante, España",38.2677622,-0.7042980999999999,establishment;food;point_of_interest;restaurant,4.7,624,1,http://www.instagram.com/malabarraca/,608 28 96 42,
ChIJI8OXrPe2Yw0Rp6f6Q1FiONI,Milano,"Carrer Cristóbal Sanz, 82, Bajo, 03201 Elx, Alicante, España",38.2700424,-0.7034819999999999,establishment;food;point_of_interest;restaurant,4.1,273,1,,966 09 30 49,
ChIJUf8nXTu3Yw0RYqEZ2K-A8Io,Chupiteria lotus,"Carrer Troneta, 14, 03203 Elx, Alicante, España",38.2651284,-0.6979466,establishment;food;point_of_interest;restaurant,3.4,18,,https://taperia-lotus.negocio.site/?utm_source=gmb&utm_medium=referral,,
ChIJkV4KF_y3Yw0RRS1v5SvuWJ8,La Taberna de Amor,"Carrer Esperidion Porta Requesens, 115, 03206 Elx, Alicante, España",38.2724046,-0.7102113999999999,establishment;food;point_of_interest;restaurant,4.4,47,,,608 61 06 46,
ChIJ8zbnz0-3Yw0RyuWQkjfTBdw,Águila Bar La Torre | Restaurante en Elche | Alicante,"Carrer la Torre, 14, 03204 Elx, Alicante, España",38.2610366,-0.7040533,bar;establishment;food;point_of_interest;restaurant,4.4,551,1,https://www.aguilabarrestaurante.com/,966 16 35 52,
ChIJf7YGLT63Yw0RlaTLiHRnsRQ,Sushi Dori Elche,"Carrer Daoíz, 11, 03206 Elx, Alicante, España",38.2655197,-0.6938449999999999,establishment;food;point_of_interest;restaurant,4.4,412,,https://sushidorielche.com/,690 62 84 92,
ChIJibkS01K2Yw0RwxBsJWFz-sI,Jackson American,"Carrer Almansa, 25, 03206 Elx, Alicante, España",38.28056979999999,-0.7153257,bar;establishment;food;point_of_interest;restaurant,3.9,2497,2,https://jacksonamerican.es/,966 66 09 81,
ChIJZ68eUAC3Yw0RlQFpaxQMdDs,Mesón Vizcaíno,"Carrer Juan Díez Martínez, 73, 03205 Elx, Alicante, España",38.2700966,-0.7169848999999999,establishment;food;point_of_interest;restaurant,4.3,71,1,,966 67 53 58,
ChIJMfXwNIC2Yw0RX7o2VM60IDc,Ristorante Portofino,"Carrer Orihuela, 3, local 1, 03203 Elx, Alicante, España",38.26994620000001,-0.6783005999999999,bar;establishment;food;liquor_store;point_of_interest;restaurant;store,4.4,1146,2,https://ristorante-portofino.eatbu.com/,966 61 25 91,
ChIJfQNcSpK2Yw0RZHR06PlGySo,La Taula,"C/ Curtidors, 17, 03203 Elx, Alicante, España",38.2593668,-0.6928166,establishment;food;point_of_interest;restaurant,4.2,593,,https://www.porthotels.es/es/restaurante-la-taula.html,966 61 20 33,
ChIJQdTfDxa3Yw0Rym6SkFKNrBE,Vaxto Elche | Hamburguesería en Elche a la brasa,"Carrer Mare de Déu dels Desamparats, 8, 03203 Elx, Alicante, España",38.264622,-0.6987066,establishment;food;point_of_interest;restaurant,4.7,1478,,https://vaxtocrazyfood.es/,722 43 20 98,
ChIJj_Y-c2W3Yw0Rf8EBJe2jnx4,Sabores de La Vega,"Carrer Benito Pérez Galdós, 53, 03201 Elx, Alicante, España",38.2663819,-0.7087245,establishment;food;meal_takeaway;point_of_interest;restaurant,4.9,43,,,670 34 23 53,
ChIJXY3NO0G3Yw0RlX5OY-7FDiQ,El Gato Ye-Ye,"Plaça del Palau, 1, Local 1, 03202 Elche, Alicante, España",38.267565,-0.6989394999999999,bar;establishment;food;point_of_interest;restaurant,4.4,327,1,http://elgatoyeye.wordpress.com/,659 83 26 00,
ChIJH-EfVY22Yw0RjwPLysRQPt0,Supermercado Dialprix,"Carrer del Filet de Fora, 48, 03203 Elx, Alicante, España",38.2620232,-0.6963038,bakery;establishment;food;grocery_or_supermarket;meal_takeaway;point_of_interest;restaurant;store;supermarket,4,99,,https://dialprix.es/centro/supermercado-dialprix-elx-carrer-del-filet-de-fora-48/?utm_source=G&utm_medium=Local&utm_campaign=Google-Local,965 42 56 75,
ChIJp42yvaq3Yw0RWhogde7WZ6s,"Palacio Del Pollo ""El Toscar""","Campero Ruiz, Travessia Manuel Campello Ruiz, 18, 03205 Elche, Alicante, España",38.2730549,-0.7163168999999999,establishment;food;point_of_interest;restaurant,4.2,79,2,,642 82 31 27,
ChIJP1gZooi2Yw0RmNKN9ddNduw,Restaurante Vegetariano Quinoa,"Carrer Francisco Rabal, 3, 03202 Elx, Alicante, España",38.2756698,-0.6787202999999999,establishment;food;point_of_interest;restaurant,4.6,763,1,https://m.facebook.com/pages/category/Vegetarian-Vegan-Restaurant/Restaurante-Vegetariano-Quinoa-977222882312497/?locale2=es_ES,646 93 32 22,Recetas ovolactovegetarianas y bufé libre de ensaladas en local con muebles de madera y coloridas paredes.
ChIJ4Y6CSdG3Yw0RK8yagxF4ES8,Manjares Elche Areperia,"Carrer Reina Victoria, 104, 03201 Elx, Alicante, España",38.2657068,-0.7084026999999999,cafe;establishment;food;point_of_interest;restaurant,4.6,150,,,722 41 24 05,
ChIJH6Iy3oy2Yw0RRfuXM1PkPpQ,Taberna Peix de Santa Pola,"C/ Infante Don Manuel, 2, 03201 Elche, Alicante, España",38.2646103,-0.6951453,establishment;food;point_of_interest;restaurant,3.5,37,2,,865 52 98 84,
ChIJX1pyHI22Yw0RynMgDd80fyE,Cafetería Ripoll,"Carrer Eugenio d'Ors, 1, 03203 Elx, Alicante, España",38.2641563,-0.6944663999999999,bar;cafe;establishment;food;point_of_interest;restaurant;store,4,428,1,,965 42 22 81,
ChIJi95tOgC3Yw0R95NXBODvZLU,De Marcos comida tradicional para llevar,"Carrer Emilio Hernández Selva, 74, 03205 Elx, Alicante, España",38.2702945,-0.7160734,establishment;food;meal_takeaway;point_of_interest;restaurant,4.4,168,1,https://www.facebook.com/DeMarcosElche/,673 44 77 15,
ChIJfQ5Q0MC3Yw0R-Xw5k994_00,La Galería del Pintón,"Carrer de les Ànimes, 10, 03202 Elx, Alicante, España",38.26624049999999,-0.6981948,bar;establishment;food;point_of_interest;restaurant;store,4.3,144,,https://lagaleriadelpinton.es/,,
ChIJMXJup2W3Yw0RCPNPuYkFxrk,ROCKET'S pizza & burger,"calle Infante D. Manuel, C/ Almòrida, 2, 5, pasaje, 03203 Elx, Alicante, España",38.26516609999999,-0.6951674,establishment;food;meal_delivery;meal_takeaway;point_of_interest;restaurant,4.5,160,,https://www.instagram.com/rocketpizza.es?igsh=ZDZoNndleWZ4bGFx,865 68 80 10,
ChIJsZk5vwS3Yw0Ry36_DDKCKfQ,Cerveceria 100 Montaditos,"Centro Comercial L’aljub, C. Jacarilla, 7, Local A-23, 03205 Elche, Alicante, España",38.262661,-0.7211101,bar;establishment;food;point_of_interest;restaurant,3.7,700,1,http://spain.100montaditos.com/,,"Cadena de restaurantes decorada como una taberna que sirve cerveza y vino, con muchas variedades de montaditos españoles."
ChIJE55xtYy2Yw0Rr0Sgm6EXunI,Restaurante Lungo Mare | Elche,"Plaça Glorieta, 3, 03203 Elx, Alicante, España",38.2657239,-0.6961741,establishment;food;point_of_interest;restaurant,4.2,1017,2,https://www.lapiemontesa.com/restaurantes-comida-italiana/lungo-mare-elche,965 45 12 90,Cuadros vintage decoran esta elegante trattoria piamontesa ambientada en una antigua casa de pescadores.
ChIJg57DB1NMYg0RW88lDWupB_c,Restaurante María Asunción Mateu Colón,"Carrer Poeta Miguel Hernandez, 69, 03201 Elx, Alicante, España",38.2643873,-0.7077302,establishment;food;point_of_interest;restaurant,4,2,,,965 42 53 59,
ChIJw9vC9ei2Yw0RZdtuOU07U8k,Restaurante Nit i dia,"Avinguda dels Llauradors, 12, 03204 Elx, Alicante, España",38.2537261,-0.7043974,establishment;food;point_of_interest;restaurant,3.5,146,1,,966 63 50 94,
ChIJDzihYQC3Yw0RuFF4e3Bb3Ss,Malabar Elche,"Carrer Troneta, 14, 03203 Elx, Alicante, España",38.2651284,-0.6979466,establishment;food;point_of_interest;restaurant,4.4,137,,https://saliracomerbienenelche.com/malabar/,651 74 62 80,
ChIJ6Yi8qhO3Yw0RvLv5ybxH2PU,Burger King,"Avinguda de Crevillent, 2, poligono l´aljub, 03205 Elx, Alicante, España",38.26126199999999,-0.7169449,establishment;food;meal_takeaway;point_of_interest;restaurant,3.6,4286,1,https://www.burgerking.es/home?utm_source=gmb&utm_medium=local_seo_home&utm_campaign=tracking_seo,660 44 61 56,"Conocida cadena de comida rápida que sirve hamburguesas a la parrilla, patatas fritas y batidos."
ChIJwXq_kvu2Yw0R1MgUmXCNrTs,Pizzería Belmonte,"Carrer Reina Victoria, 126, 03201 Elx, Alicante, España",38.2656673,-0.7097365,establishment;food;point_of_interest;restaurant,4.6,414,1,https://m.facebook.com/pizzasparallevarelche,966 09 44 40,
ChIJsYnODgC3Yw0RVE4Ykek0tx8,Restaurante El Tío Román,"03205 Elche, Alicante, España",38.2691034,-0.7114883,establishment;food;point_of_interest;restaurant,,,,,,
ChIJB-GbH3-2Yw0RIHbYZpYIZy8,PITY'S FOOD,"C. la Carátula, 12, 03202 Elx, Alicante, España",38.2763347,-0.679551,establishment;food;point_of_interest;restaurant,,,,,,
ChIJgfW3K0O3Yw0RDwpDfUpMrvs,BOSS Kebab Pizzeria,"Carrer de la Diagonal, 03202 Elx, Alicante, España",38.2738118,-0.7122761,establishment;food;point_of_interest;restaurant,4,13,,,610 13 57 75,
ChIJFY4vVfq2Yw0RPsGKdu_nW2I,Chickers Coffee,"Carrer del Capità Antoni Mena, 50, 03201 Elx, Alicante, España",38.2646729,-0.7082617,bar;establishment;food;point_of_interest;restaurant,4.2,501,1,,655 99 33 18,
ChIJvSTriPK2Yw0RqQ-jifQM4JE,Asador De Pollos El Rey La Mesa,"Carrer Angel, 03203 Elx, Alicante, España",38.2625495,-0.6984908999999999,establishment;food;point_of_interest;restaurant,4.5,85,,,965 45 06 36,
ChIJ67IU6rG3Yw0Rzd53zIs22Ss,Sabor y Alma,"Carrer Poeta Miguel Hernandez, 81, 03201 Elx, Alicante, España",38.2643522,-0.7085058,establishment;food;meal_takeaway;point_of_interest;restaurant,5,4,,,643 03 16 59,
ChIJbZrqMRO3Yw0RFWeeRBKvr_8,COMO EN CASA ELCHE,"Carrer Vicente Blasco Ibáñez, 43, 03201 Elx, Alicante, España",38.2677982,-0.7040645,establishment;food;meal_takeaway;point_of_interest;restaurant,4.9,85,,,608 52 30 81,
ChIJe2ZEIAC3Yw0RsFVtvOevj2w,Restaurant El Tonell,"Km1 - Polígono Miralles, CV-851, 03293 Elche, Alicante, España",38.2465444,-0.706017,establishment;food;point_of_interest;restaurant,4.7,56,,,722 81 75 26,
ChIJ-YOUEtS3Yw0RjTIwE0Q_KPA,La casica de Gemma,"Carrer del Capità Baltasar Tristany, 153, 03204 Elx, Alicante, España",38.2588841,-0.7090512000000001,bar;establishment;food;liquor_store;point_of_interest;restaurant;store,,,,https://la-casica-de-gemma.eatbu.com/,612 34 53 45,
ChIJdZi3Oe-2Yw0RNGlIbdWL_Wg,Brasería - Tapería Sofi,"Carrer Conrado del Campo, 97, 03204 Elx, Alicante, España",38.2572489,-0.7043562,establishment;food;point_of_interest;restaurant,4.3,450,1,https://saliracomerbienenelche.com/braseriataperiasofi/,663 94 52 41,
ChIJtTMzfvS2Yw0R-_FcSvR8rJI,Malasaña,"Carrer Major de la Vila, 29, 03202 Elx, Alicante, España",38.2672514,-0.6987418999999999,bar;establishment;food;point_of_interest;restaurant,4.3,1041,1,https://es-es.facebook.com/pages/Malasa%C3%B1a/482318991827906?directed_target_id=0,648 65 10 59,
